,place_id,place_name,latitude,longitude,address,zip_code,rating,total_number_of_ratings
0,ChIJleWegJHTD4gRsIMGm3IjUcM,yolk test kitchen,41.91358779004821,-87.6822028354253,1767 n milwaukee ave,60647.0,4.4,180.0
1,ChIJI1dehI0xDogRRkvKIpUspHM,las asadas mexican grill,41.80802515275297,-87.72003743037237,3834 w 47th st,60632.0,4.0,166.0
5,ChIJBRuLGC_MD4gRfUVkzaQBIZk,mini palapita inc.,41.970833760208265,-87.74482421972742,4968 n elston ave,60630.0,4.3,342.0
7,ChIJ-auSyWItDogRQwUqcwljejE,crazy bird,41.89119348444125,-87.65705497652716,1160 w grand ave,60642.0,4.7,67.0
9,ChIJIYRFg7IsDogRAW0zLguKL-A,the redhead piano bar,41.893370903547904,-87.62878315259044,16-18 w ontario st,60654.0,4.2,989.0
11,ChIJ5dzicc82DogRAgt6UbqYZO0,harmony restaurant,41.792163848654795,-87.78540566160221,6525 w archer ave,60638.0,4.3,303.0
12,ChIJKZPKuZzTD4gRdrBluOezgiI,himalayan sherpa kitchen,41.968442053562335,-87.69630357897282,2701 w lawrence ave,60625.0,4.8,75.0
13,ChIJtYr4-kUvDogRSldaqlz8S0I,maxwell street express,41.7360797687383,-87.65085877776569,1058 w 87th st,60620.0,4.1,365.0
15,ChIJ3Y3Wx5YxDogR4InextcWNAs,domino's pizza,41.801786842810614,-87.72355455269388,5016 s pulaski rd,60632.0,3.4,331.0
17,ChIJk6AQeNotDogRSYiKuU0vC50,avli river north,41.89483049188808,-87.63430053853016,700-702 n wells st,60654.0,4.3,8.0
19,ChIJfyRm5UskDogRm6rm5r8cYR8,sharks fish tony steak,41.692244366177825,-87.64262037785444,805 w 111th st,60643.0,4.0,675.0
20,ChIJO7XGtKTSD4gRJFn6EFcbOzw,new china station,41.910205129391386,-87.68770229368916,2411 w north ave,60647.0,3.6,113.0
23,ChIJVwHOlyi0D4gRNjLVMUoK00A,macaroni grill,42.008536400868735,-87.91442843927048,11601 w touhy ave,60666.0,3.7,860.0
24,ChIJO_rhitssDogRcLK0gyPMFFU,stelio's bottles & bites,41.881102463653505,-87.65186501694456,19 s morgan st,60607.0,4.6,62.0
31,ChIJZ5jUr4bSD4gRRWEDncTz1AE,arbor,41.932024920103814,-87.69216904438716,2545 w diversey ave,60647.0,4.5,104.0
32,ChIJO3DkVAnND4gR6k_9s99ZXlI,el guanaco,41.931959438085926,-87.72223430061649,3802 w diversey ave,60647.0,4.0,105.0
33,ChIJk8P6YM_ND4gRVbEpbXPtduQ,campesino restaurant,41.968336274546,-87.70878272483317,3207-3209 w lawrence ave,60625.0,5.0,1.0
34,ChIJAdR9Cr4sDogRBUmDi4xUdqc,taco burrito king,41.87669790361039,-87.63354313948199,405 s wells st,60607.0,3.9,193.0
35,ChIJT8Iak_8tDogRaLHBn_ysQGU,d'nuez,41.81846434483413,-87.69688003750433,4125 s archer ave,60632.0,4.1,440.0
36,ChIJ7zvMixjSD4gRmh5s7oloPNk,vegetarian express,41.968330403151455,-87.67902762942835,4747 n damen ave,60625.0,4.6,82.0
38,ChIJaQvkeWLND4gR7dWuaDjRh5A,cafe mustache,41.92335589370735,-87.69785017026875,2313-2315 n milwaukee ave,60647.0,4.6,420.0
39,ChIJN1vshn7ND4gRUJtD382NSHA,masa azul,41.93196913588585,-87.70013311819626,2901 w diversey ave,60647.0,4.6,267.0
40,ChIJ5dZAOAYoDogRr_Y0nk0d7lU,harold's chicken shack ,41.73637382027632,-87.62723156456728,100 w 87th st,60620.0,3.9,1021.0
51,ChIJk9y3ZiDND4gRqJBU4SN8tOA,frida's pizza corporation,41.9385394320182,-87.7606308007806,5337 w belmont ave,60641.0,4.5,19.0
53,ChIJT52lfdkvDogRQ3U6t5cF0HE,onesti pizzeria inc,41.76443416454271,-87.69279450732277,2755 w 71st st,60629.0,3.1,68.0
56,ChIJ53HcncLSD4gRRiSbj06ahKw,cortland's garage,41.915974566321076,-87.66962157196224,1645 w cortland st,60622.0,4.2,288.0
57,ChIJwWCKPpvSD4gR0yAwOZi2y6E,cherubs 1,41.92497651650807,-87.69116242232869,2524 w fullerton ave,60647.0,4.6,61.0
58,ChIJmYibGeXND4gR7VFs8DnaBE8,taqueria el dorado ,41.96833532113604,-87.70886984436869,3209 w lawrence ave,60625.0,4.0,102.0
62,ChIJgda8oQPRD4gRp0clC3sSS8c,andhradarbar,41.997897013484966,-87.68658605962808,2240-2242 w devon ave,60659.0,4.5,102.0
63,ChIJuSHgkZfSD4gRMhgH9emwC7g,lazo's tacos,41.917676497980096,-87.6872657017977,2003-2011 n western ave,60647.0,3.9,1124.0
69,ChIJpWTWK4vND4gRlZtaoqPlTwM,taqueria las flores,41.975805123578695,-87.7132619526397,3352-3354 w foster ave,60625.0,4.4,13.0
70,ChIJndCu0MIsDogRuc-ELT_6cw0,chinese yum yum,41.87783134486316,-87.64764834758425,809 w jackson blvd,60607.0,3.5,140.0
71,ChIJEz7d07_RD4gRaOoi0-qF4cU,bismillah restaurant,41.99778802851346,-87.69280878916278,2510 w devon ave,60659.0,4.3,261.0
72,ChIJizNZgJ22D4gRWbn0oN4SKGA,tortas frontera,42.008536400868735,-87.91442843927048,11601 w touhy ave,60666.0,4.3,1311.0
73,ChIJiy698YswDogRd7IAS81kOAY,wendy's,41.75466012439375,-87.7413847586052,7601 s cicero ave,60652.0,2.9,418.0
74,ChIJ0c5uLLbSD4gREt5-41edUc0,mirai sushi,41.90328489854517,-87.6781414560568,2020 w division st,60622.0,4.4,123.0
82,ChIJE6NfZ67SD4gRjZO9aR-80PM,innjoy,41.90304415750275,-87.67927089988581,2051 w division st,60622.0,4.2,281.0
83,ChIJx4b-6TTND4gRuFNqWx9ydO8,bonita's restaurant inc,41.91722351626528,-87.73059969166016,4138 w armitage ave,60639.0,5.0,6.0
84,ChIJ6f9YYqTSD4gR1Al4SlCmveM,subway,41.91039897821153,-87.6902068285586,2512 w north ave,60647.0,3.8,61.0
85,ChIJqaCAFCMxDogRy6lcGqlGVkA,taco bell ,41.795362472352096,-87.7233692082325,5350 s pulaski rd,60632.0,4.2,34.0
86,ChIJ5ehT21rRD4gRYMyP4Bd66Qk,chicago taichi bubble tea,42.00558686485114,-87.66107732040031,6800 n sheridan rd,60626.0,5.0,10.0
87,ChIJpR2V8BXND4gRPy600MzMcyg,el capitan restaurant,41.91733689553147,-87.721449987074,3754-3758 w armitage ave,60647.0,4.1,42.0
88,ChIJUXzIKpYxDogRnbnEHYZ9W1A,el sombrero,41.80933272861339,-87.72349163256884,4611 s pulaski rd,60632.0,4.5,48.0
90,ChIJj9qgFCzOD4gRnwbBwXYB2uA,the main pizza,42.01192482773641,-87.70123045712496,2839 w touhy ave,60645.0,4.4,196.0
93,ChIJrcr26tAsDogR-8GTqB3rpjU,ace hotel chicago,41.88712191392366,-87.65203575962191,311-319 n morgan st,60607.0,4.6,822.0
94,ChIJXY5CiyctDogR8-v6307huWo,alhambra palace restaurant,41.88432780168576,-87.65845724300314,1240 w randolph st,60607.0,4.1,1125.0
95,ChIJXaUCWbUxDogRncafrBDgra0,palermo's restaurant,41.77863125454842,-87.71742437604965,3751 w 63rd st,60629.0,4.4,437.0
96,ChIJ4bJirsDOD4gRHBc7Q6VsMvw,city's edge bar & grill,41.997435233866156,-87.76125861652775,5310 w devon ave,60646.0,4.5,159.0
99,ChIJo9Vb9iLOD4gR8NIzMkXtE0k,delhi darbar,41.99757606083328,-87.70500110804562,3010 w devon ave,60659.0,3.9,396.0
104,ChIJ9eemRwgtDogR_EsmnDF1M4E,carnitas uruapan,41.85763234806772,-87.6697745345797,1725 w 18th st,60608.0,4.7,1530.0
108,ChIJk0ZwggrND4gRhLt0yJGJSos,cafe tacuba chicago,41.967983305405404,-87.74177611404262,4507 w lawrence ave,60630.0,4.3,7.0
109,ChIJQ6cCiIPMD4gR2Q-YfEDHkBk,avenida del sabor,41.931094868682656,-87.7713443827231,5805 w diversey ave,60639.0,4.2,132.0
110,ChIJ1cFlAp46DogR0uNpub-Lvkg,conte's pizza,41.738117520954034,-87.7216916107363,8512 s pulaski rd,60652.0,4.2,180.0
113,ChIJ4bCV89jTD4gRb0AoSPNPwQg,sea & olive,41.90331444109649,-87.6764167191003,1938-1940 w division st,60622.0,4.3,65.0
114,ChIJKxRagyzSD4gRI4qY0Rka_Aw,lao sze chuan,41.96995886314596,-87.65984317819886,4832 n broadway,60640.0,4.2,256.0
116,ChIJdfJsBUDOD4gRLe7ZJKLjYXU,via veneto,41.99647012267009,-87.7175038126524,6340 n lincoln ave,60659.0,4.3,206.0
117,ChIJ8U0rEmIsDogROcBPM_7xIL4,daebak korean bbq,41.85478377573143,-87.6327328095787,2017 s wells st,60616.0,4.3,712.0
118,ChIJqQyWfSa0D4gRN_IZ45o_HCE,argo tea,42.008536400868735,-87.91442843927048,11601 w touhy ave,60666.0,3.5,45.0
119,ChIJiUAZ5xLND4gRBG_Svxpnqz4,raymonds tacos no. 3,41.924694271720426,-87.71859337650946,3638 w fullerton ave,60647.0,4.3,96.0
121,ChIJz29MdHrND4gR5pq83uUZbVo,longman & eagle,41.930126115324036,-87.70723080718348,2657 n kedzie ave,60647.0,4.7,1929.0
122,ChIJTYZMDiotDogRvZPaS632PK0,jimmy johns,41.89176977820589,-87.65860461424934,520 n ogden ave,60642.0,3.8,51.0
124,ChIJ1TxkUvnRD4gRJYJ320Q9KOQ,mekato's colombian bakery,41.980205519802354,-87.6926003777661,5423 n lincoln ave,60625.0,4.5,587.0
125,ChIJS3nLocoxDogRUo8v-9k-9dE,los pekes ice cream & coffee shop,41.778855337866396,-87.71712584709125,3742 w 63rd st,60629.0,4.4,79.0
127,ChIJaeDsomDND4gRiwTMaTCG1TM,healthcare alternative systems,41.91707339369025,-87.70193043997543,1949 n humboldt blvd,60647.0,4.2,5.0
128,ChIJbcernpDSD4gRtKDGH8yR2y4,quesadilla la reina del sur inc,41.92271136874486,-87.6874275597316,2235 n western ave,60647.0,4.6,626.0
132,ChIJJYtx1jAsDogRvjrVCUAgao4,johnny o's,41.830791780461546,-87.65082245322775,3465 s morgan st,60608.0,4.2,222.0
133,ChIJjy-MvNPTD4gRkuZHiDgtPgo,antojos & shakes,41.90284877198458,-87.69306763647268,2627 w division st,60622.0,4.9,15.0
134,ChIJcRRjSCm0D4gRxJ7bVvbQtBM,frontera tortas  by rick bayless gate k4 t3,42.008536400868735,-87.91442843927048,11601 w touhy ave,60666.0,4.1,939.0
137,ChIJR6FXtZfSD4gRjJvLCYWO7Vg,floyd's pub,41.917458568356686,-87.6851026411648,1944 n oakley ave,60647.0,4.5,190.0
138,ChIJSb5z5t4tDogRe8PeMVTvDkA,taco lulu,41.879163618039705,-87.64264995953803,601 w adams st,60661.0,4.1,55.0
139,ChIJlSSuJNXTD4gR6KO1UEzrdew,"double happiness enterprises, inc.",41.97316839903074,-87.65736357565744,1061 w argyle st,60640.0,4.7,15.0
140,ChIJCSm5CUYwDogRKiWt4wsX5EM,dunkin donuts/baskin robbins,41.766871449399645,-87.72231683922517,6925 s pulaski rd,60629.0,4.1,61.0
141,ChIJsT3Fut_RD4gRdgJufFoRRWI,uru-swati,41.99751643797393,-87.69592211008249,2629 w devon ave,60659.0,3.8,502.0
142,ChIJ78NyRsUsDogR6AqyYoPrts4,au cheval,41.88451545836221,-87.64749730032112,800 w randolph st,60607.0,4.6,4695.0
143,ChIJLRNSnaEtDogRPvL7_wL6Fwg,bp,41.852071127711035,-87.67556229949928,1955 w cermak rd,60608.0,3.6,7.0
147,ChIJF5VonrjSD4gRBgGbmXf3hWU,urbanbelly wicker park,41.90942674415946,-87.67758328415117,1542 n damen ave,60622.0,4.4,394.0
154,ChIJY67C8EfLD4gRTZuqwPeFNRw,cafe hoang,41.90912535950115,-87.79562029285854,6818 w north ave,60707.0,4.4,106.0
156,ChIJh_oVv0QtDogRlRO5mTl-LuY,popeyes famous fried chicken,41.88263293865735,-87.686621829305,50 n western ave,60612.0,3.3,577.0
158,ChIJ__8739HSD4gRuKgGEgcnPvM,mariscos la costa,41.902539299640786,-87.66761746288637,1132 n ashland ave,60622.0,4.5,178.0
161,ChIJVR42WNksDogRntizbJVxpME,crosstown fitness,41.88157047910092,-87.65332321194828,1031 w madison st,60607.0,4.9,184.0
163,ChIJUd2L8trND4gRJZ9gTYiBhIQ,los asadores mexican grill,41.97582181741593,-87.71172940864521,3312 w foster ave,60625.0,5.0,5.0
164,ChIJY4TVKFQkDogR4mjVqRDBbLU,"home of the hoagy,inc",41.69231135890114,-87.6552682468684,1316 w 111th st,60643.0,4.1,1283.0
166,ChIJVfsb7Rg7DogRoZ5xFCSrzg4,firewater saloon mount greenwood,41.691406189233774,-87.71830607808162,3908 w 111th st,60655.0,4.2,326.0
169,ChIJi9juTI7JD4gRAH89Tqt81iA,kung fu wok restaurant,41.99496878030707,-87.78543707203039,6249 n milwaukee ave,60646.0,3.9,16.0
171,ChIJu1U9qsnSD4gRu1jZ4n1kTNY,red square,41.90333103206356,-87.67543391800302,1914-1916 w division st,60622.0,4.5,329.0
172,ChIJ7ThroxstDogRcgnRTuaTCrQ,golden thai,41.86918475349806,-87.66450967311361,1509 w taylor st,60607.0,4.4,274.0
177,ChIJwxSm6J4yDogRfdNjdyC2u9o,the  original maxwell st,41.87370411501883,-87.70086461713747,601 s sacramento blvd,60612.0,4.0,298.0
179,ChIJibzc3rYtDogRNFEVMQCu1vE,jason wok,41.86878383901945,-87.68624468790968,1014 s western ave,60612.0,4.8,9.0
185,ChIJ5_FPg4_RD4gRYqCP-6QJtMQ,tanoshii,41.98309881120602,-87.66852394399494,5547 n clark st,60640.0,4.5,250.0
189,ChIJI06KKzUtDogRNqs5Ha0G54w,roots handmade pizza,41.896044909585854,-87.67560484584318,1922-1924 w chicago ave,60622.0,4.3,955.0
190,ChIJVaF9pRstDogRs-PzIlSi4Rs,jubranos,41.86917813329072,-87.66490728096329,1519 w taylor st,60607.0,4.5,102.0
191,ChIJne25kwjND4gRatqWgG8TDqM,starbucks coffee ,41.967671015100265,-87.76759623699381,5601 w lawrence ave,60630.0,4.1,209.0
192,ChIJOQgJucbSD4gRgVXXEp8csFw,las palmas,41.91042962586729,-87.67394168112114,1835 w north ave,60622.0,4.4,268.0
199,ChIJ4xXTeZfSD4gR6QeZRvAMOkc,birrieria estilo jalisco inc.,41.922472275724004,-87.68771380635988,2230 n western ave,60647.0,4.4,292.0
203,ChIJpVx_DzjMD4gRvFIQLcx5gVI,i.h.o.p.,41.95742941661818,-87.74757441604942,4210 n cicero ave,60641.0,3.7,981.0
205,ChIJq6q6wLjSD4gROoqWFKpgB6Q,angry pig tavern,41.91034561901541,-87.67906657744264,2039-2041 w north ave,60647.0,4.5,166.0
206,ChIJBek4rsDSD4gRl_vkgCbqDnU,northside bar and grill,41.91151626874878,-87.67734069528593,1635-1637 n damen ave,60647.0,4.2,441.0
208,ChIJFRe8FPstDogRDmWvccThc-U,mcdonald's ,41.823158345079044,-87.68923664723573,3867 s archer ave,60632.0,3.6,1371.0
209,ChIJWU5qmL3SD4gRCQYHHxYtp7E,silom12,41.91490097692986,-87.6846674276531,1846-1848 n milwaukee ave,60647.0,4.4,163.0
210,ChIJRSn-ONe1D4gRai9JNZj47wM,gold coast dogs,42.008536400868735,-87.91442843927048,11601 w touhy ave,60666.0,3.8,438.0
212,ChIJRUPK8-_ND4gRVwrTsYcYnqQ,salam  restaurant,41.96571901742301,-87.70853756167853,4634-4636 n kedzie ave,60625.0,4.0,857.0
215,ChIJg66fHCe0D4gR44TuxP8UWCY,united club,42.008536400868735,-87.91442843927048,11601 w touhy ave,60666.0,3.7,428.0
220,ChIJF2f7353RD4gR6irbDQFlnqM,china palace,41.98992502738334,-87.65943957792769,1129 w thorndale ave,60660.0,3.6,108.0
224,ChIJLRbpVM7SD4gRGbrDwLRHcrQ,bangers & lace,41.903410014986854,-87.67029621760885,1670 w division st,60622.0,4.4,579.0
225,ChIJKXQZpXrLD4gRsc9IPF_36LY,ming brickyard super china buffet inc.,41.92884722332376,-87.7857810192012,2650 n narragansett ave,60639.0,4.0,449.0
226,ChIJe44dX3AtDogRubIB3j62c8s,burger king ,41.864646729615934,-87.68600251219546,2401-2407 w ogden ave,60608.0,3.6,208.0
227,ChIJMUPhAPoxDogReOLexgb0KeY,frank's chicago shrimp house,41.812181052065476,-87.70712481334274,4459 s archer ave,60632.0,4.5,213.0
228,ChIJ1zhOMHIuDogRyB8Aw1tcowI,la cecina restaurant,41.808630431592775,-87.67361893018992,1934 w 47th st,60609.0,4.1,482.0
230,ChIJvxctudAxDogRsjjV5X5VXFA,betty's icecream,41.78684434610169,-87.70350999751714,5840 s kedzie ave,60629.0,4.9,53.0
231,ChIJB5GjFaTTD4gRHD9V-8hB0-A,vanille pattisserie,41.941294180839144,-87.64429200618662,3243 n broadway,60657.0,4.6,136.0
232,ChIJ-aKXPgzTD4gRLor4Q1tfvr8,cafe vienna,41.92848737421647,-87.64204435669477,2523 n clark st,60614.0,4.3,276.0
233,ChIJj74yhxTTD4gRBdgIqda58zg,gemini bistro,41.920057536694095,-87.64101934425842,2075 n lincoln ave,60614.0,4.5,292.0
236,ChIJaRl6eNgsDogRf8lujStctCQ,lou malnati's pizzeria,41.884113576693956,-87.6580816735995,1235 w randolph st,60607.0,4.4,1322.0
237,ChIJTcDpnlHSD4gRZOaxJicTdjo,tuco & blondie,41.94330695630928,-87.66406138245193,3356-3358 n southport ave,60657.0,4.3,595.0
238,ChIJ-Ufji7zLD4gRonqmEoMu9sk,anthony's diner,41.945225909077436,-87.81607437620299,7544 w addison st,60634.0,5.0,5.0
239,ChIJudKeYtIsDogRfWhiR7GzovE,galleria marchetti,41.89324923448882,-87.64879205703045,825 w erie st,60642.0,4.4,189.0
242,ChIJRx_TgsAvDogRJjpEo7lUKeQ,taqueria mi pueblo,41.80100543752876,-87.68661612013952,2459 w 51st st,60632.0,4.7,49.0
244,ChIJfY9dm8U2DogRYoSruwpQoTg,the shrimp shack,41.79213894220009,-87.78674847587374,6601 w archer ave,60638.0,4.5,352.0
246,ChIJEQ9xRhDTD4gRp1djRjjsB8I,johnny's beef & gyros,41.92362446590992,-87.64642729029045,2300 n lincoln ave,60614.0,4.5,254.0
248,ChIJLwehLqovDogR-Nn3Z5VJJNY,chefshaun's hunger hideout,41.74987081545715,-87.68680008233818,2539 w 79th st,60652.0,5.0,3.0
249,ChIJWyc4-ozND4gRYGmcEotDMis,tano's pizzeria,41.954050096788976,-87.70472907257313,3038 w irving park rd,60618.0,4.4,123.0
254,ChIJmQvfksvTD4gRafdwOI7HfhY,pizza-metro,41.90319053056459,-87.67029008677444,1707 w division st,60622.0,5.0,1.0
259,ChIJ8yetOQXTD4gRHp_6Nm83kg0,qdoba mexican eats ,41.932531176231386,-87.65370947965263,957 w diversey pkwy,60614.0,4.3,271.0
261,ChIJ4QZeuxvMD4gRyscApg13-OQ,mcdonald's,41.9706775856096,-87.76342894418006,4946 n milwaukee ave,60630.0,3.6,804.0
262,ChIJgTgrrPrMD4gR2_8oNRNQyzA,restaurante y tamaleria la bendicion inc,41.92809931574407,-87.74630655430202,2567 n cicero ave,60639.0,4.4,68.0
263,ChIJWQwINsQtDogRQvFqTEb7llc,siri indian restaurant,41.86939628798951,-87.66499334444555,1520 w taylor st,60607.0,4.4,341.0
264,ChIJ8b4wTs7SD4gR_Qgol2aC7bU,5411 empanadas,41.90319824225925,-87.66979533648626,1659 w division st,60622.0,4.5,190.0
265,ChIJVR_s6bLTD4gRE48xLsrwvIM,cubby bear lounge ltd,41.947085343828114,-87.65663783493278,1059-1065 w addison st,60613.0,4.1,836.0
268,ChIJgQw0jYvRD4gRXORjbUrNq4s,pauline's restaurant,41.97985969467416,-87.67427781349596,1754 w balmoral ave,60640.0,4.5,434.0
269,ChIJYZ60zNgwDogRQSZMiebQQI4,the chg bear sports bar/grill,41.777047434817106,-87.76153944156653,6335 s central ave,60638.0,4.3,53.0
271,ChIJ0ZFty-EsDogRHoKLStDzB8E,jade court chinese restaurant,41.87352003005835,-87.65696051450144,624-628 s racine ave,60607.0,4.3,193.0
272,ChIJRYk3wpUtDogR4v7HM1rs_qc,jackie's mexican cuisine,41.83598843774932,-87.64608160187807,3207 s halsted st,60608.0,4.4,57.0
275,ChIJv2NPdZbSD4gRouXPbrFYvHo,antico,41.917557317725546,-87.68266439539492,1946 n leavitt st,60647.0,4.7,132.0
276,ChIJmTyEUSDOD4gRl0ZxMKK6Cjo,mr. falafel,41.9977637602161,-87.6997957219191,6404 n california ave,60645.0,4.7,329.0
280,ChIJeXTItBvMD4gRJ4hG5yqifss,gale street inn,41.970011678252355,-87.76279618588528,4914 n milwaukee ave,60630.0,4.6,834.0
281,ChIJIVrbHPjMD4gRQfUHdZXic5U,estrella blanca,41.93666807129704,-87.74665459887675,3049 n cicero ave,60641.0,3.9,29.0
282,ChIJ_bSNqsTSD4gRiY1MNGnZ4vQ,tarboush mediterranean grill,41.9107340942111,-87.66809336341993,1608 w north ave,60622.0,4.4,143.0
286,ChIJp3INTqYlDogRhd2yf71gnVI,uncle joe's jerk chicken & fish,41.7084285331549,-87.65556641692646,10210 s vincennes ave,60643.0,3.7,286.0
287,ChIJTVmt6vPMD4gRLDG3F5Tljq4,zacatecas restaurant,41.93133655338099,-87.75299705381228,5037-5039 w diversey ave,60639.0,4.1,183.0
289,ChIJcWh97kfJD4gR9zRthArTV6A,superdawg drive-in inc,41.99660885982106,-87.78699944881153,6363 n milwaukee ave,60646.0,4.5,2941.0
291,ChIJD8OBkdcsDogRxVk2nPDC6-g,pizzeria del mercato,41.88678769586561,-87.65669394874121,1154 w fulton market,60607.0,4.0,27.0
292,ChIJVSqYBt3RD4gRYGhqSbNd4II,khan bbq restaurant,41.997618688841094,-87.6899394819467,2401-2405 w devon ave,60659.0,3.9,569.0
293,ChIJeym-q3EtDogRPbhJ8DgEfOk,ballast point brewing company,41.886083491794274,-87.6488012338551,212 n green st,60607.0,4.3,291.0
294,ChIJOxXGyFAtDogR7u-PLnGpdPM,lao peng you llc,41.89600469987965,-87.6779378973854,2020 w chicago,60622.0,4.9,10.0
295,ChIJ5Rvh3VLSD4gR-ctsHolPXjs,two hearted queen,41.945503653310645,-87.64957851411022,3500 n halsted st,60657.0,4.8,333.0
307,ChIJ3b--t57SD4gRPhcckb2w6wg,taqueria los comales ,41.920182838435146,-87.69313904053791,2148 n milwaukee ave,60647.0,3.7,505.0
311,ChIJJ1U7SsYsDogR52EkVJFBDzI,le pain quotidien,41.88431283109331,-87.64112326659475,135 n clinton,60661.0,4.3,87.0
313,ChIJP8PLLfLSD4gRzo2BPk1tiQg,taco  bell ,41.92866902058592,-87.67377920462141,2575 n clybourn ave,60614.0,3.9,706.0
316,ChIJMxmsexItDogRAC6u3uKK1FY,illinois center for rehabilitation and education-r,41.86687083903885,-87.6758133783677,1950 w roosevelt rd,60608.0,4.4,9.0
319,ChIJDdJ9yqjTD4gR8hwIA_w6Dlc,poke poke,41.94008901097665,-87.6493912545656,802 w belmont ave,60657.0,4.7,104.0
321,ChIJwcMQoK_TD4gRA_2Hx7qSuu4,nookies tree ltd,41.94281448841558,-87.64950812514198,3334 n halsted st,60657.0,4.4,257.0
322,ChIJm1MK2rotDogRUDJC6QVaPMA,harold's chicken ,41.862678912114326,-87.62419160244413,1450 s michigan ave,60605.0,4.7,6.0
324,ChIJ3V69u7fTD4gRV3EyfyXDnmY,windy city gyros,41.953715918659405,-87.65014628741659,3932 n broadway,60613.0,4.3,591.0
327,ChIJnehl07nND4gROaw-ONd2Eb8,independence tap,41.95377450976464,-87.7264587067583,3932-3934 w irving park rd,60618.0,4.5,126.0
328,ChIJocxdT6osDogRDhLvXIwloUY,halsted street deli,41.892274965646884,-87.62009879454878,541 n fairbanks ct,60611.0,3.3,12.0
329,ChIJyaEwrW8tDogRxoGYX687qvE,lou malnati's,41.8898747912625,-87.62425976144405,410 n michigan ave,60611.0,4.5,14.0
333,ChIJf7wA2gHTD4gRdVIS7dWafkk,sarpino's pizzeria,41.9324618093209,-87.65783274822834,1149 w diversey pkwy,60614.0,4.1,169.0
334,ChIJ1wfVjqgtDogRG4qUJkqHKkg,shu tin xia,41.848386251232185,-87.64196007758322,2428-2436 s wallace st,60616.0,4.6,13.0
335,ChIJs2Tl_BzTD4gRJmzetdts-vQ,cafe bonne sante,41.92230468172915,-87.64850216798372,2215 n halsted st,60614.0,5.0,2.0
336,ChIJ908aKunTD4gRGsTOB-Hmm2Q,etta,41.910645574433396,-87.67420058686103,1840-1842 w north ave,60622.0,4.7,380.0
337,ChIJXyqg9e_PD4gRVSt9Npl1D0U,shinwari grill,41.9975929860972,-87.7040346324575,2948-2950 w devon ave,60659.0,4.4,69.0
338,ChIJjZgBcSe0D4gR3SY0WFbtMY8,ice bar,42.008536400868735,-87.91442843927048,11601 w touhy ave,60666.0,3.3,7.0
340,ChIJq8XcsKjTD4gR3gpb-WSH15c,peking chinese food,41.939814005246774,-87.64911458899103,3167 n halsted st,60657.0,3.6,72.0
344,ChIJy1w-FtosDogRKGBXuEUhF1g,sweetgreen,41.88443496492766,-87.65216554670809,1000 w randolph st,60607.0,4.4,168.0
346,ChIJuZYRJ8DSD4gRdJuh5-8ngjg,lottie's pub,41.915854880451626,-87.6762179092616,1925 w cortland st,60622.0,4.4,687.0
347,ChIJZz5jkKktDogRQeSMqQ6QH4w,fran's beef,41.854572220124695,-87.66378596101777,2021 s blue island ave,60608.0,4.6,63.0
348,ChIJw_oVr4rRD4gRbulwmWXgt10,china kitchen,41.97594611753842,-87.67772574573549,1931 w foster ave,60640.0,3.8,42.0
349,ChIJqe6FYjMxDogRoGm9jPJPl4k,"three sons restaurant, inc.",41.79394204830804,-87.77463321494591,6200 s archer ave,60638.0,4.5,511.0
350,ChIJnUaZB9TTD4gROAfpZdmSe60,soul crab chicago,41.91593071729015,-87.68751557795046,1904 n western ave,60647.0,3.6,139.0
351,ChIJe1J34mswDogRF2fh-2t7tzo,white castle ,41.749014401931134,-87.72204098184092,7912 s pulaski rd,60652.0,3.7,565.0
352,ChIJ0TXxlQPSD4gRf2WWPKa-Azs,groundswell coffee roasters,41.97209297588227,-87.6909582633662,5008 n lincoln ave,60625.0,4.5,116.0
353,ChIJw0cVUdHSD4gRZADPW6blGZY,the frontier,41.90128364339324,-87.66348362488466,1072 n milwaukee ave,60642.0,4.4,731.0
354,ChIJGxK-0agtDogRLlXtAIrRv3I,manjares al express,41.8513977997122,-87.66616621226515,2226-2230 s ashland ave,60608.0,4.3,488.0
355,ChIJr1YcKwHJD4gRBv50YlI4Yz4,lotus garden,42.01177151609754,-87.80880368336393,7254 w touhy ave,60631.0,3.8,14.0
356,ChIJJQQzGSvSD4gR1cgLInIH5yQ,le's pho,41.9722135569909,-87.65960910010729,4925 n broadway,60640.0,4.0,253.0
358,ChIJi4LnEbfND4gRKaCUdngM8AE,shokran,41.95353192936301,-87.72833818191091,4027 w irving park rd,60641.0,4.5,303.0
360,ChIJAbN-ArIsDogRqx7ytXesgCc,rockit bar & grill,41.89016136574744,-87.62884924184334,22 w hubbard st,60654.0,4.0,662.0
361,ChIJm8Yhi63TD4gRwbyjIB4HrSY,cozy noodles & rice,41.945108104331005,-87.65441181641037,3456 n sheffield ave,60657.0,4.5,558.0
362,ChIJpdW-ZMI2DogRRaJJ0vbA1V8,taco bell ,41.79218559796885,-87.79580846844715,6944 s archer ave,60638.0,3.7,333.0
365,ChIJYYqxZLosDogR7gK7KPdEe1s,new orleans kitchen,41.88458626715457,-87.63101044588598,100 w randolph st,60601.0,4.0,175.0
367,ChIJ67wqZ6rSD4gRvzHdAHx0GKU,cafe marie-jeanne,41.899330918472295,-87.69664492473737,1001 n california ave,60622.0,4.5,547.0
369,ChIJjTP5T6ssDogRy1Amgz169Qo,corner bakery cafe,41.89485296136011,-87.62290180042824,676 n st clair st,60611.0,4.2,1043.0
370,ChIJKZXy7qjND4gRtjQr2AVcREk,kindred chicago-central hospital,41.94008298285754,-87.72954609719963,4058 w melrose st,60641.0,4.2,145.0
371,ChIJw1-fSqfJD4gRYHM1gS9lMCY,nonno pino,42.00310350668988,-87.81689425591499,6718 n northwest hwy,60631.0,4.6,260.0
372,ChIJG2HDPTzSD4gRY7ilnUV-GfE,margies candies,41.961400692264384,-87.67498750263746,1813 w montrose ave,60613.0,4.6,792.0
373,ChIJ6Tc_KbExDogRjEKWCVCX3ps,zacatacos,41.78507649032044,-87.72279064865629,5925 s pulaski rd,60629.0,4.0,1080.0
375,ChIJDT8iySLOD4gRNOgUVaefzis,new taza bakery,41.997539893342406,-87.70700596180559,3100 w devon ave,60659.0,4.3,302.0
381,ChIJRQvV4bMxDogR8pIlCLVaJSQ,mariscos la palma,41.782967133217156,-87.72302765304838,6038-6040 s pulaski rd,60629.0,4.5,514.0
382,ChIJb8hNsw3TD4gR0QhIJbra9BY,kabuki restaurant,41.927477726852224,-87.64144977590252,2473 n clark st,60614.0,4.3,111.0
385,ChIJuTFvEtvND4gR87o4mY1X-s4,taqueria san juanito,41.96711477143258,-87.70857709253174,4714 n kedzie ave,60625.0,4.4,571.0
389,ChIJq5wKXXnND4gRPjLPuGUGJzY,cellar door provisions,41.93194409993535,-87.70360323628219,3025 w diversey ave,60647.0,4.7,243.0
391,ChIJ9RJTKaYsDogRr12ehpa_2KU,market thyme,41.8846320757672,-87.62224799108877,200 e randolph st,60601.0,3.9,43.0
393,ChIJl8W__OctDogR6aQfmxuGM3Q,the darling,41.88425670381661,-87.64982670264364,901-905 w randolph st,60607.0,4.5,198.0
394,ChIJG3SRVArMD4gRpCoxMBRie0k,pete's pizzeria,41.960284231502094,-87.77396125248596,5845-5849 w montrose ave,60634.0,4.2,238.0
396,ChIJPR-VuTYxDogRYqq5cHgVknw,flamingo cafe,41.79456474995328,-87.76914449095,6069-6073 s archer ave,60638.0,4.0,5.0
397,ChIJV_7DGTjLD4gR1LjfpgYFDkU,nick jr.'s grill,41.90910578560825,-87.7970900667382,6856 w north ave,60707.0,4.6,109.0
399,ChIJscE8yNAsDogR5bdhEY-wBwA,swift & sons,41.886848295491134,-87.65223416110462,1000 w fulton market,60607.0,4.6,753.0
401,ChIJWaFfwZ0tDogRhIJnI2RQI0U,roti modern mediterranean,41.88442576290219,-87.65268988514183,1012 w randolph st,60607.0,4.6,81.0
402,ChIJ0fvJGqssDogR3mnbePi4NbI,epic burger,41.89326297731564,-87.6219587764921,227 e ontario st,60611.0,4.3,555.0
403,ChIJ0QK7SW3RD4gR1XWCLTjfW08,gadabout,41.9765926405371,-87.66855724217827,5212-5214 n clark st,60640.0,4.9,24.0
404,ChIJi2nLFNAsDogRNE9e36pfREA,kuma's corner,41.886878841282865,-87.64969725329456,854-856 w fulton market,60607.0,4.5,1268.0
405,ChIJozJmzyDMD4gR64gnNo5usMk,"mother cluckers, llc",41.97525809526954,-87.75199055715778,5200 n elston ave,60630.0,4.7,714.0
408,ChIJsaihlC3MD4gRz8GrmTgpu8U,sanos pizzeria,41.967994241870855,-87.74064316006319,4469 w lawrence ave,60630.0,4.4,63.0
409,ChIJKRH5t9rSD4gRCcziAsL8HuI,mott st.,41.90703874954132,-87.66744407587532,1401 n ashland ave,60622.0,4.5,588.0
414,ChIJP0YWfrcsDogRTh0brtotBEI,habanero baja grill,41.8852892005056,-87.63554688963875,178 n franklin st,60606.0,4.6,17.0
415,ChIJf_YDL8fSD4gRtIKPRCd_Nvc,cooking fools llc,41.910622805831906,-87.67576194185493,1916 w north ave,60622.0,4.1,20.0
416,ChIJxc0GZxMtDogRPbscKIiHCcw,the dalcy,41.88688930565886,-87.64882279182802,302 n green st fl 3,60607.0,4.7,15.0
417,ChIJ9T_qZQXTD4gRQxNkucYLObk,"noodles in the pot, inc",41.92690699536436,-87.64866510422102,2453 n halsted st,60614.0,4.4,229.0
420,ChIJ85MGSbzRD4gRJ5ggx3eKYEc,assyrian american association,41.998172635762344,-87.67142114364609,1618 w devon ave,60660.0,4.3,9.0
423,ChIJ3bn7fYjRD4gRPsE-ZmwLCEc,reza's  restaurant,41.97791795135504,-87.66773356011377,1477-1479 w berwyn ave,60640.0,4.1,1226.0
428,ChIJ24T5DWU0DogRFEgyHIEyokI,la pulqueria,41.84649965688463,-87.68534069617044,2501 s western ave,60608.0,3.8,201.0
429,ChIJff1RZia0D4gRpybdLfYxHLI,delta sky club,42.008536400868735,-87.91442843927048,11601 w touhy ave,60666.0,4.2,456.0
430,ChIJ7YvexnAxDogRHNCUc63MURQ,"gelatina's cris restaurant, inc.",41.80685498334125,-87.74298396841671,4725 s cicero ave,60632.0,4.1,142.0
433,ChIJ46Gmw0_TD4gRu8bdsy0jK1A,coconutz,41.903822360844906,-87.62924444589264,13 w division st,60610.0,4.0,104.0
435,ChIJmRXesZ8xDogRVESoQvZ0IRk,red barrel,41.80000296677763,-87.73516926865645,5214-5220 s archer ave,60632.0,4.3,358.0
436,ChIJC2bfEHExDogROhMJO-4O7VQ,mayahuel restaurant & pulqueria,41.80513932623477,-87.74324247619779,4820 s cicero ave,60638.0,3.9,194.0
437,ChIJn8Dc_HAtDogRTZPnqJf83r0,just salad,41.8880742810662,-87.6349552029274,222 w merchandise mart plz,60654.0,2.5,6.0
439,ChIJlSBqtmIlDogRsuiJwJZ-gFs,"jamison's soul food, llc",41.73583389580895,-87.66798786362106,1800 w 87th st,60620.0,3.5,303.0
440,ChIJt59i7hXOD4gRqs2v9c5wyXo,little quiapo restaurant,41.99563177556418,-87.71270678169131,6259 n mccormick rd,60659.0,3.8,276.0
441,ChIJOdNZ7dsxDogRE6Cj90imxGs,core juice bar,41.79178653965037,-87.70365422787455,5558 s kedzie ave,60629.0,4.9,90.0
442,ChIJq6dotyfMD4gR5EgmUy_EPec,el pueblito mexican grill,41.97504399270978,-87.74813331935255,5152 n cicero ave,60630.0,4.3,303.0
444,ChIJA4BSDU7SD4gRNxKTxbp7k-g,butcher's tap,41.946831640926156,-87.6638619981349,3553 n southport ave,60657.0,4.3,433.0
445,ChIJJSiZHjvTD4gRRlVC7mla7Bk,arclight cinemas,41.908560135368425,-87.64645268572521,1500 n clybourn ave,60610.0,4.3,1205.0
446,ChIJIVSzXFUtDogR3o1e-VabLIM,feed,41.89554365079729,-87.69684454390776,2803 w chicago ave,60622.0,4.3,347.0
447,ChIJ34L_kuosDogRODW49JEHGaY,holiday inn suites,41.87451215422576,-87.63986470914409,506 w harrison st,60607.0,3.8,1009.0
448,ChIJr_7aUsHND4gRcWAO9wt_arg,ruby's fast food corp.,41.961128198025385,-87.72216036908962,3740 w montrose ave,60618.0,4.7,299.0
451,ChIJXRa5wrDLD4gR5eA9nZ7Bm-g,"falafel dream, inc.",41.95225488946834,-87.80739690900612,3950 n harlem ave,60634.0,4.2,241.0
453,ChIJiaODD5EtDogRMD2u1Sn_YVY,ramen-san,41.886282116841286,-87.64851477973816,219 n green st,60607.0,4.5,297.0
454,ChIJEbp7HlkvDogR3zMuEdH3hHQ,studio movie grill,41.736217960782156,-87.62931043653778,210 w 87th st,60620.0,4.0,3116.0
455,ChIJocgPPdAsDogRw7G2LZnxz-I,beatrix,41.88689053177296,-87.64882281750185,834-842 w fulton market,60607.0,4.6,1037.0
458,ChIJeeHLHN3ND4gRCmZiXB9NpBc,taqueria siglo xx,41.968445246044006,-87.71941657581397,3626 1/2 w lawrence,60625.0,4.3,43.0
459,ChIJg1wI--XMD4gRXWk-1MSDs5o,rolando taco's,41.923102855621096,-87.74641732066216,2322 n cicero ave,60639.0,4.5,97.0
461,ChIJAzDRHrDTD4gRYkqp90VFk-g,little jim's,41.94550975342797,-87.64928456978338,3501-3505 n halsted st,60657.0,4.2,164.0
463,ChIJKRgL-2LND4gREIkwgomHgnk,the radler,41.924482563171615,-87.6996928656208,2375-2377 n milwaukee ave,60647.0,4.4,591.0
464,ChIJufxarFksDogRmZafmauuI5E,del toro,41.85323373038085,-87.64636414528013,2133-2139 s halsted st,60608.0,4.5,549.0
467,ChIJG8Y1h5AtDogRFgYS87hogZc,el cantante,41.84649965688463,-87.68534069617044,2501 s western ave,60608.0,4.1,21.0
468,ChIJxbggpz8tDogRP4lg6XiOpQg,woodwind,41.89408538066317,-87.62040431002174,259 e erie st,60611.0,5.0,6.0
469,ChIJKafaHdAsDogRLfmNPT6NdR8,ramen takeya,41.88668123471305,-87.64835209199198,819 w fulton,60607.0,4.5,725.0
470,ChIJR07tq5gtDogR5uqv-DJHCSM,martin's corner,41.8513412126996,-87.67814936266365,2058 w 22nd pl,60608.0,4.4,145.0
471,ChIJzb1ji6rTD4gRDoO5dFfkk6A,"ella's bbq, inc.",41.9180886243431,-87.64708314797943,723 w armitage ave,60614.0,4.4,7.0
472,ChIJIWElF5ssDogRnT3UvgoYRv8,pride of chicago,41.86683145443883,-87.62566960895664,1221-1223 s wabash ave,60605.0,2.4,54.0
473,ChIJf0tYgJfND4gRpZr00lVb1qI,maribella's italian cuisine + bar,41.946639592877055,-87.71494918308186,3454 w addison st,60618.0,4.4,228.0
475,ChIJt7VOMGvTD4gR0lnjO9RCBhk,saimai thai,41.91844708184753,-87.63792342122498,338 w armitage ave,60614.0,4.3,134.0
477,ChIJXTWLI0wyDogRIVcdqyfttJ8,mcdonalds ,41.844249433592466,-87.73262060501526,4334 w 26th st,60623.0,3.6,741.0
478,ChIJf6JfKLbSD4gRK2J23lfqVNk,the fifty / 50,41.90304699799323,-87.67911932717314,2047 w division st,60622.0,4.1,552.0
479,ChIJQ9e62R7TD4gRzqXmA0RMhqs,the budlong hot chicken,41.91820856763485,-87.6537576875213,1008 w armitage ave,60614.0,4.6,356.0
481,ChIJzSg2BmfSD4gRq4VUXTpev3o,hot woks cool sushi,41.943312712450826,-87.67972196894466,2032 w roscoe st,60618.0,4.3,166.0
482,ChIJMbuzb0vSD4gR9V5RRimiri4,uncommon ground,41.951064053085005,-87.65979512802838,3800-3804 n clark st,60613.0,4.2,333.0
483,ChIJxWKy0frND4gRgHSKpw3zh2M,huaraches y quesadillas dona chio,41.96835849693989,-87.7068542288518,3119 w lawrence ave,60625.0,4.3,111.0
485,ChIJbRQWs6jTD4gRXpH-KemnQ6E,siamkrungthep inc./krung thep thai cuisine,41.940146235765575,-87.64912448509256,3205 n halsted st,60657.0,4.6,205.0
487,ChIJ3TXIYt3ND4gREQAJo3YlnNY,cardona's,41.96825094865302,-87.71732730641341,3537 w lawrence ave,60625.0,4.2,354.0
489,ChIJLWDI9xzND4gRZii9wmVYPx0,el taconazo jr.,41.92450769084945,-87.73398032565292,4256 w fullerton ave,60639.0,4.0,614.0
493,ChIJn8OuN6nTD4gRJAjA1DXQ740,philly's best,41.93983429293103,-87.65188242188351,907 w belmont ave,60657.0,4.2,404.0
495,ChIJc_wrbOIsDogRtm1Sz03Ok5A,edible arrangements,41.86951758162952,-87.65725911176945,1212 w taylor st,60607.0,4.3,31.0
498,ChIJ9X4kwHrND4gRkpu9BrUQS6I,la boulangerie,41.927864202687005,-87.7061618818839,3129 w logan blvd,60647.0,4.7,186.0
502,ChIJb_6vGOwvDogRlIi2L3rJexE,nicky's restaurant,41.751049644162826,-87.68272735043797,7829 s western ave,60620.0,4.1,261.0
503,ChIJV-27rAYwDogRNOedqg3i3mA,l & m starlight restaurant inc,41.742471437585046,-87.70234438264238,8300 s kedzie ave,60652.0,4.3,675.0
504,ChIJ05Cbe-4vDogRyodfH4Q_ylE,the chicken shack,41.74947552001605,-87.68297883687882,7920 s western ave,60620.0,3.7,104.0
507,ChIJk6Jp6FTTD4gR_eE2mObBi5M,afc sushi @ lurie childrens hospital,41.89665988131876,-87.62175523527284,225 e chicago,60611.0,4.3,590.0
509,ChIJQbJ81K0gDogRv68mv1gHSMY,pudgy's pizza,41.650173062475744,-87.54730766219589,13460 s baltimore ave,60633.0,4.4,153.0
511,ChIJCcHEZZHMD4gRG1FL7uv7_jE,la michoacana ice cream shop 4,41.931696466108924,-87.74254645501154,4614 w diversey ave,60639.0,4.0,154.0
516,ChIJ98pT6WspDogR1XKieWAFg5k,bbq supply co.,41.79936519578902,-87.594900164752,1301 e 53rd st,60615.0,4.2,164.0
518,ChIJIXB1EbLSD4gRIQ9Zl81oidQ,bite,41.900527932590926,-87.6868161338336,1039 n western ave,60622.0,4.5,466.0
521,ChIJizr7XKfTD4gRXkYENCZdD9A,cesar's on broadway,41.93563185766838,-87.64439807874828,2924-2926 n broadway,60657.0,4.2,724.0
526,ChIJKX1hP78sDogRilxrvJm5LGs,tri-star catering,41.886197099233314,-87.6411730001049,215 n clinton st,60661.0,5.0,6.0
527,ChIJ7UH3ApjND4gR9cYHrwTuaWM,olive garden italian restaurant,41.94639766520745,-87.71732058369071,3555 w addison ave,60618.0,4.3,2278.0
529,ChIJcx9E-IMvDogROk8nb4LTG3g,mcdonald's restaurants,41.742420824438476,-87.6630911433338,8321 s ashland ave,60620.0,3.3,738.0
532,ChIJ-eZEi3MpDogR3GAyQcwz-0g,capital one cafe,41.799432939643545,-87.58923799532896,1465 e 53rd st,60615.0,3.7,3.0
533,ChIJb-AryaoxDogRpZ28ePtY530,valentina restaurant,41.778621898429854,-87.73530382261269,4506 w 63rd st,60629.0,4.0,366.0
535,ChIJt9EunxzTD4gRBf7YjI8tNtI,oromo cafe bucktown,41.91618570053351,-87.68752368767453,1912 n western ave,60647.0,4.9,13.0
536,ChIJF9xHjbrTD4gRBiKK8wjrLg4,angelina ristorante,41.947205494685505,-87.64702664696026,3561 n broadway,60657.0,4.4,374.0
537,ChIJh4pA7znLD4gRqAFzVeXXGTg,6978 soul food,41.90906215302536,-87.80024470792763,6978 w north ave,60707.0,3.9,676.0
538,ChIJPVZFBAjLD4gRy30Xo9Nst2U,olivia's taste inc,41.93789040171536,-87.80640601940748,7157 w belmont ave,60634.0,4.3,131.0
541,ChIJbWrO-rklDogRspcsrCoIF6k,harold's chicken shack ,41.70701073530631,-87.64269046563244,10259 s halsted st,60628.0,3.7,347.0
542,ChIJ9fLFlrwsDogRw4DcMrNQDlY,zoup,41.87953373462755,-87.63009026893299,62 w adams st,60603.0,4.3,121.0
545,ChIJs_6wOrPTD4gRSxByy7qjT4Q,starbucks coffee ,41.94848084659548,-87.65737226343279,3649 n clark st,60613.0,4.4,133.0
549,ChIJR-jFPh7TD4gRMtA_eY-Mv1E,oj breakfast lunch & brunch,41.95428475504035,-87.67735575098257,1924 w irving park rd,60613.0,5.0,2.0
550,ChIJ1RCeXRjSD4gRD2Q_HfBfWnc,shanghai inn restaurant,41.96761495890106,-87.67900579440833,4723 n damen ave,60625.0,4.6,155.0
551,ChIJITomf3vTD4gR0GHDRIdY7AQ,starbucks coffee ,41.95255658757639,-87.64950022697546,3845 n broadway,60613.0,4.0,8.0
552,ChIJz9zkmQXTD4gR9vbe1XAZOvo,taco & burrito express brothers inc.,41.92847357783629,-87.64901462154842,2540 n halsted st,60614.0,4.4,267.0
553,ChIJrVF_VmwtDogRPH4S7kovM1o,taylor gourmet morgan st llc,41.885312780714,-87.65198514048795,177 n morgan st,60607.0,4.7,7.0
554,ChIJN8BIZwXTD4gRMI2zfrtEzMM,paula's thai kitchen,41.92659311588866,-87.64865397223507,2441 n halsted st,60614.0,4.3,95.0
556,ChIJ-2X6ggPSD4gR75YDVB96iSA,gateway to learning special ed,41.971466216668404,-87.69021462743629,4925 n lincoln ave,60625.0,4.0,5.0
559,ChIJD1logv4pDogRtw7H37ld5_I,jerk 48,41.77315781192575,-87.61111086125341,548 e 67th st,60637.0,4.1,434.0
560,ChIJHWqVHSDND4gR7yo3ipFzhpQ,kim long restaurant,41.92424241716219,-87.7543435031838,5114 w fullerton ave,60639.0,4.1,145.0
561,ChIJE9nXn4nTD4gRfezJts8_U5U,traspasada ,41.94719645308579,-87.66871595779075,3605 n ashland ave,60613.0,4.7,36.0
563,ChIJtzaQASXND4gRWiyykmXyxQE,braseritos restaurant inc.,41.909735949989646,-87.72927346612649,4107 w north ave,60639.0,3.7,128.0
565,ChIJo6igjwXTD4gRTRndFy07LOs,chengdu impression restaurant,41.92860374503243,-87.64872470278429,2545 n halsted st,60614.0,4.4,380.0
566,ChIJo2UNtrXTD4gRV_AGcouPFMY,pr italian bistro,41.95296441761877,-87.65464669411458,3908-3910 n sheridan rd,60613.0,4.5,375.0
569,ChIJId32HcMyDogRXj_nsCZU3NY,mr. b's old fashioned donuts,41.8798798824679,-87.72549471360422,25 s pulaski rd,60624.0,4.3,88.0
570,ChIJef3dzP_TD4gRJhVU8tO_mBw,the boil cajun seafood,41.90315323488667,-87.67258598142034,1805 w division st,60622.0,5.0,7.0
571,ChIJ4V6ikcjND4gRJFnKypcK3lA,northside grill,41.95979250151515,-87.72783183969106,4351 n elston ave,60641.0,4.4,146.0
574,ChIJzSgAI93RD4gRHURk7LXBHyg,spinzer restaurant,41.99763955874522,-87.68872053987526,2331 w devon ave,60659.0,4.2,305.0
575,ChIJsalqiAbSD4gRpHA8AiAyy-A,kimberli sushi bar & thai,41.96846702189828,-87.69322013455337,2547 w lawrence ave,60625.0,4.4,67.0
579,ChIJRWsDboIoDogRAazVC_SowpE,bj's market & bakery,41.735859575746744,-87.58577161179069,8734 s stony island ave,60617.0,3.7,604.0
580,ChIJFRkjn6jND4gRyjZIHuGi-GI,tamarindo loco,41.94029215210743,-87.7273633833375,3240 n pulaski rd,60641.0,4.6,32.0
581,ChIJSSIYtdM6DogRJYAf8AqiJ3o,popeyes louisiana chicken,41.705208489493096,-87.7011632562526,10331 s kedzie ave,60655.0,4.1,310.0
582,ChIJQXuM5BkuDogRwTKSqKXjRM0,el plan de lobos,41.80120185097902,-87.6879664444938,2532 w 51st st,60632.0,4.1,17.0
584,ChIJzRHj5Ca0D4gR332_sPqHzq4,wolfgang express,42.008536400868735,-87.91442843927048,11601 w touhy ave,60666.0,3.1,228.0
586,ChIJ4Tk11MLRD4gR_OOzJTBSSRs,hema's kitchen,41.997596381381456,-87.69141491131062,2439 w devon ave,60659.0,3.9,211.0
587,ChIJpYw_CrolDogRFlh7Y5Pfw2I,nadia's gourmet grapes,41.706792860007255,-87.64443891865488,841 w 103rd st,60643.0,4.9,18.0
589,ChIJ4_ovZs8sDogRyw3X3QCiI-Y,oriole,41.88613536862084,-87.6451750641585,661 w walnut st,60661.0,4.9,273.0
590,ChIJebqefCy0D4gRwlDh1knALSI,brioche doree t-3,42.008536400868735,-87.91442843927048,11601 w touhy ave,60666.0,2.2,13.0
591,ChIJ3SXSgX3ND4gR4fD_C6KhXEU,mi tocaya,41.92857498112596,-87.6975783536939,2800 w logan blvd,60647.0,4.5,469.0
592,ChIJT5_wwO_ND4gRGBAfgUNZSdg,thai valley restaurant,41.96474029214609,-87.70850367911709,4600 n kedzie ave,60625.0,4.3,129.0
593,ChIJuWoM1qTTD4gRHzAbzSfIsWg,uncommon  ground,41.99802474346836,-87.66556345762726,1401-1405 w devon ave,60660.0,4.4,573.0
594,ChIJw6FXY7AsDogR4il7fxEkO74,subway ,41.88563898075977,-87.62905001540052,29 w lake st,60601.0,3.4,68.0
595,ChIJb2Dng6zOD4gRcgle0FFqmok,tuxpan mexican grill,41.98249929727471,-87.77415091836443,5540 n milwaukee ave,60630.0,4.3,142.0
596,ChIJp6jXoQgxDogRR089q8ECRpU,harry caray's shortstop,41.78932932326538,-87.74164564419638,5700 s cicero ave,60638.0,3.5,46.0
597,ChIJUU6Lg6zOD4gR3iJ3D4Pp7uc,rosati's pizza,41.98258310472735,-87.77422708745796,5544 n milwaukee ave,60630.0,3.8,55.0
598,ChIJo0uJobwsDogRbuJqpD7VWh0,the marq,41.87953523408122,-87.63002421135039,60 w adams st,60603.0,4.3,714.0
601,ChIJG32zvLssDogROO1LZwCv414,mac kellys greens & things,41.8818609377384,-87.631563844886,123 w madison st,60602.0,3.7,18.0
611,ChIJzW0A58HMD4gR7tyhqN_YpJs,minna's restaurant,41.916956725681096,-87.75280847188141,5046 w armitage ave,60639.0,4.5,346.0
612,ChIJneZz_8YsDogRxVV6s0sGoBo,starbucks coffee ,41.88199433820508,-87.6397586848809,500 w madison st,60661.0,4.3,122.0
614,ChIJdRDdZ1YtDogRCBENE6Wwd28,the black barrel tavern,41.88155995723971,-87.65437239771845,1061 w madison st,60607.0,4.9,25.0
615,ChIJjdNdxrDTD4gRvI84ae1cPf4,salsita,41.949338131952636,-87.64969635420978,3706 n halsted st,60613.0,4.5,166.0
616,ChIJUcfV0gwpDogR5LrQqcwIdjU,morry's deli,41.795119210139816,-87.5855552597703,5500 s cornell ave,60637.0,4.1,262.0
618,ChIJ2y7xkU0rDogR5qOTZYZF-PM,jimmy buffett's margaritaville,41.89209413686178,-87.61156988394657,600 e grand ave,60611.0,3.3,468.0
619,ChIJdZ2X6Z_TD4gR0sYT4UPyZ1c,brookdale lake shore drive,41.93617164858792,-87.63693905225722,2960 n lake shore dr,60657.0,3.1,11.0
620,ChIJW_GHgKvOD4gRt-TFC73R5W0,cafe marbella,41.98235014106909,-87.77365984476519,5527-5531 n milwaukee ave,60630.0,4.4,226.0
623,ChIJC7NrQfjRD4gRaLPynJ87WxA,san soo gab san corp,41.9772862709721,-87.68905760864439,5247-5251 n western ave,60625.0,3.9,909.0
624,ChIJ2TDH1SrTD4gR76I8BCM9eq4,pie-eyed pizzeria,41.89615078732557,-87.65579995878325,1111 w chicago ave,60642.0,4.4,229.0
625,ChIJtU4nVAXLD4gRCzA_IM8RYw0,"4 yolks,inc",41.92888332655037,-87.806280071214,2659-2661 n harlem ave,60707.0,4.0,278.0
627,ChIJY6fhYGgtDogRbddrvGYx31Y,johnna cafe,41.874315813612796,-87.68638937160839,520 s western ave,60612.0,4.3,50.0
628,ChIJMQlvvmDND4gRzU9ZUpdSOVo,parson's chicken & fish,41.9175611431489,-87.70116990701356,2946-2952 w armitage ave,60647.0,4.5,1352.0
629,ChIJmbalhAXLD4gRTuJ6C5VOpx4,ristorante agostino,41.93133954522792,-87.80636676313536,2817 n harlem ave,60707.0,4.6,184.0
630,ChIJq6om9QPTD4gRsv7_s9DjnLQ,old grounds social,41.92912423550477,-87.65333791705929,950-952 w wrightwood ave,60614.0,4.0,148.0
632,ChIJ9wz9v68sDogRaFBaY1O8wk8,mccormick & schmick's seafood restaurant,41.88670755506981,-87.6278834784023,1 e wacker dr,60601.0,4.2,854.0
633,ChIJoSM9dRfTD4gRVyYQyUSNRko,fritzy's of lincoln park,41.9180886243431,-87.64708314797943,723 w armitage ave,60614.0,4.4,106.0
634,ChIJAfHLRoXND4gR0ouYOCIo7pU,starbucks coffee ,41.91633360285599,-87.74592795599106,1941 n cicero ave,60639.0,4.5,20.0
635,ChIJDW0GpdXTD4gRuURgMT3_mMo,uptown pho,41.973415011961535,-87.65542230934776,1010 w argyle st,60640.0,4.4,205.0
641,ChIJGcq0BdLSD4gRkkxMBndp-E4,alegria's seafood,41.900452559364034,-87.66756009821934,1024 n ashland ave,60622.0,4.2,1093.0
642,ChIJ4R_7zJQtDogRZyK-H8teuPY,starbucks coffee ,41.872742312472695,-87.67744609066818,715 s seeley ave,60612.0,4.5,10.0
644,ChIJESGqvqbTD4gR3rgf0uNishU,dryhop brewers,41.939309677466014,-87.64422837055052,3155-3159 n broadway,60657.0,4.5,447.0
645,ChIJvR0eUu82DogRyZD0bGSnAZA,little  caesars ,41.79004396855189,-87.80130039473886,5601 s harlem ave,60638.0,4.1,198.0
647,ChIJ54B6CWEoDogRofBtCIR_7l0,the banana leaf corporation,41.75171043268835,-87.5764686289653,1948 e 79th st,60649.0,4.0,184.0
652,ChIJpdxbkSzSD4gRUBuNMXdNhXg,fiesta mexicana corp,41.96924878168732,-87.65982425851124,4806 n broadway,60640.0,4.2,365.0
655,ChIJr7DaYsnSD4gRZSxu2ZGQrfA,happy village corp,41.9012640096857,-87.67461482324751,1057-1059 n wolcott ave,60622.0,4.5,319.0
656,ChIJH_pcChHTD4gRSAGkVbIq6bM,chicago halal,41.922731532421736,-87.6447528911125,2233 n lincoln ave,60614.0,4.3,190.0
658,ChIJqechWyUtDogRuO1So_sZ0Dg,chicago philly stop,41.88543498614326,-87.66708805526098,1600 w lake st,60612.0,4.0,72.0
662,ChIJ88Zs70MvDogRnnG--_nebpo,king gyros,41.7506195104644,-87.6344092993733,7904 s vincennes ave,60620.0,3.6,191.0
665,ChIJVakpBLUtDogRjX6vWShKHT0,tan lu,41.85410541494822,-87.63405906823053,2101 s china pl,60616.0,3.4,26.0
666,ChIJ2xVo2bLTD4gRfJsGQqHWg-Y,mcdonald's ,41.94745757407912,-87.65689136051212,3610 n clark st,60613.0,3.7,201.0
672,ChIJcx6UUeXSD4gRKnrXz_0D0es,cairo kebob,41.92528006794063,-87.66677400880488,1524 w fullerton ave,60614.0,4.7,389.0
674,ChIJv1frYr4sDogREXHhVYWaBsc,starbucks coffee,41.87800606262711,-87.63402203216755,209 w jackson blvd,60606.0,4.2,70.0
676,ChIJcdi8W97RD4gRLV4FZC9MJXs,mysore woodlands,41.9977653535896,-87.69428406894725,2548-2550 w devon ave,60659.0,3.5,834.0
677,ChIJFxV6T97RD4gR6miazdGU2iI,sukhadia sweets & snacks,41.99753950771954,-87.69461506221796,2557-2559 w devon ave,60659.0,3.1,220.0
679,ChIJhXC13jwzDogRuqPZYxpIsho,"joe's barbque, inc",41.88057114596428,-87.74795724892677,4900 w madison st,60644.0,3.4,259.0
682,ChIJu7_9VLwsDogR4CnidfsxOf8,freshii,41.87803442833617,-87.63117140697916,111 w jackson blvd,60604.0,3.8,40.0
683,ChIJq7UYSn3MD4gRkhFbS9Jaric,chicago by night,41.93868377475747,-87.76656249384537,5600 w belmont ave,60634.0,4.3,64.0
684,ChIJ14vEeBgsDogRwtqxikGu8EU,snack shop restaurant,41.82366771868339,-87.6382950217091,452 w pershing rd,60609.0,4.3,52.0
689,ChIJ55lxrcDSD4gRx2itHyvso0M,dimo's pizza six corners,41.91091779442157,-87.67732639626594,1615 n damen ave,60647.0,4.5,950.0
690,ChIJa6dPJmPJD4gRMizTuOC8zxA,fried rice express,41.98080501735688,-87.80502338256187,7108 w higgins ave,60656.0,4.3,138.0
691,ChIJSVVC6IUsDogR3J8NXdD2_J4,tapas valencia,41.861018239854175,-87.62741709999584,1530 s state st,60605.0,4.4,624.0
693,ChIJHaE5wbDTD4gRYJX3YZZN0NQ,kit kat lounge and restaurant,41.94914733742978,-87.64968983874849,3700 n halsted st,60613.0,4.5,773.0
694,ChIJg8Jbe88sDogRhDDyoU8q34Q,saint lou's assembly & moneygun,41.88580606886823,-87.64508754379452,660-664 w lake st,60661.0,4.4,403.0
695,ChIJO69IKxjTD4gRmEznbscO3rU,taco joint,41.917916818190015,-87.64835076816347,1969 n halsted st,60614.0,4.4,621.0
697,ChIJa3CSbMYsDogR5h2hx43APA4,proxi,41.884324060156366,-87.64239826176153,565 w randolph st,60661.0,4.6,472.0
698,ChIJw7z_FecxDogRjCH2Ar5ecZY,gorditas aguascalientes,41.797543905371754,-87.70352333204033,5249 s kedzie ave,60632.0,3.6,410.0
699,ChIJebwHgq_ND4gRm5CbNzPQQTY,pl lounge,41.944298159597494,-87.7274828078833,3454-3456 n pulaski rd,60641.0,4.4,255.0
700,ChIJaWFUsBbND4gRQUqCi1xI_GI,antojitos guatemaltecos,41.923777505298624,-87.77191442640833,5823 w fullerton ave,60639.0,4.3,17.0
703,ChIJCW7NpqIsDogR22ZO9TFDTq0,panera bread ,41.875179056057796,-87.6274737894488,525 s state st,60605.0,4.2,693.0
704,ChIJX2JuCWzJD4gRt-ELsahjeHY,iron horse ale house,41.993534218514064,-87.80126102080993,6158 n northwest hwy,60631.0,4.3,389.0
705,ChIJ1aBKEEbSD4gRyqcn8FjKJXo,zia's lago vista,41.95118641238085,-87.66882564060083,3817-3819 n ashland ave,60613.0,4.5,448.0
706,ChIJda7hDpzMD4gRuX50kgXcpIw,buffet los amigos restaurant inc,41.923777505298624,-87.77191442640833,5823 w fullerton ave,60639.0,4.6,24.0
707,ChIJG5BXjdXPD4gRbSJ73FvW9hM,gulliver's inc,42.019245840973895,-87.69833170944449,2727 w howard st,60645.0,4.4,574.0
708,ChIJu_TFPSEuDogRiEgMgzLKebE,mezquite pollo express,41.79357366564852,-87.6942215395728,2809 w 55th st,60632.0,4.2,229.0
722,ChIJwbT5X5TND4gRr1yuXAnCWfk,the fast burrito,41.953957216483005,-87.71355988117966,3414 w irving park rd,60618.0,3.3,149.0
725,ChIJVVVFV88sDogRIs6NMpEi61s,kumiko,41.885807019661705,-87.64417189465739,630 w lake st,60661.0,4.9,96.0
726,ChIJja5RoCC0D4gRhhxNJEmzElw,reggio's pizza express,42.008536400868735,-87.91442843927048,11601 w touhy ave,60666.0,3.0,212.0
728,ChIJjSQXEVjSD4gRdKNC04xOtW0,boston market ,41.9367209159054,-87.6687025633007,3020 n ashland ave,60657.0,4.1,329.0
730,ChIJDQm8OPAsDogRmgVNRxuGYBM,bar louie,41.864755663393886,-87.64669917908262,1325 s halsted st,60607.0,4.0,676.0
733,ChIJ0XMVgHDND4gRp_Ury-m5I-Y,el cid tacos ,41.929762864832895,-87.70722323405842,2645 n kedzie ave,60647.0,4.4,446.0
734,ChIJp8kb2f8sDogRiV6FGHDSke8,s.k.y.,41.85781773489261,-87.65796102681593,1239 w 18th st,60608.0,4.7,437.0
735,ChIJtUmUTCPLD4gR43GIM_E5Lqs,maria's mexican restaurant,41.91456849501297,-87.80580867011524,1905 n harlem ave,60707.0,4.2,508.0
739,ChIJTXe-3izQD4gRNj454d9WUO0,siam pasta ltd.,42.01645779645396,-87.69035474983076,7416-7418 n western ave,60645.0,4.1,98.0
741,ChIJRSn-ONe1D4gRweQrEB5Ql5A,skybridge restaurant & bar,42.008536400868735,-87.91442843927048,11601 w touhy ave,60666.0,4.0,400.0
742,ChIJFcjJdp22D4gRsCl-K12pXjI,the great american bagel,42.008536400868735,-87.91442843927048,11601 w touhy ave,60666.0,2.5,22.0
743,ChIJl1rfEYjRD4gRfUmD6UcDy5Y,middle east bakery & grocery,41.97629123440586,-87.66897680929684,1512 w foster ave,60640.0,4.6,489.0
746,ChIJpfUT2bfRD4gRXeQwTZ9niNc,kabob king grill,41.99765846224235,-87.68767204213611,2305 w devon ave,60659.0,4.9,44.0
748,ChIJnTYg56bTD4gRuFdFOfroM6Y,mortar and pestle,41.937939792358364,-87.64447681700325,3108 n broadway,60657.0,4.5,302.0
749,ChIJV7OQE_TRD4gRNeOL_OPW13Q,tea leaf garden,41.99765846224235,-87.68767204213611,2305 w devon ave,60659.0,4.9,21.0
750,ChIJwTNVeXrND4gR7ioIQTZjhlc,passion house cafe 1 llc,41.92934429527824,-87.70721753045883,2631 n kedzie ave,60647.0,4.7,219.0
756,ChIJedVCmAAtDogRr8Y1yE6xCcU,"la michoacana del panda, inc.",41.856444558725435,-87.66219444234406,1855 s blue island ave,60608.0,4.5,813.0
760,ChIJXWvF8a3TD4gREr9Us5SfzXw,the graystone tavern,41.94477276328081,-87.65410784813349,3441 n sheffield ave,60657.0,4.6,180.0
761,ChIJdxvhYGDND4gR-x5wrJYKKkw,super jalapeno grill inc.,41.91757216077945,-87.69985903100971,2910 w armitage ave,60647.0,4.2,83.0
764,ChIJyxMIS8YsDogRNKyFWZgZJ6o,loop soup,41.88418750712781,-87.64111966683218,131 n clinton st,60661.0,4.5,19.0
765,ChIJpdZfQcUsDogRQ509w3wZR5g,ronero,41.88451799637232,-87.64730383120977,738 w randolph st,60661.0,4.4,178.0
767,ChIJQ03l6NksDogRa6toaMVXaK4,capriotti's sandwich kings llc,41.8851449893521,-87.6543153671728,171 n aberdeen st,60607.0,4.5,93.0
769,ChIJZesEhq4gDogRIIfwYP-617Y,gorditas adrian's,41.649363992063094,-87.5468534433004,13507 s brainard ave,60633.0,4.2,118.0
770,ChIJSW45wd0xDogRjwzrkmFWf3I,"manolos tamales, inc. ",41.79595669469915,-87.70347960433394,5341 s kedzie ave,60632.0,4.0,327.0
771,ChIJffLJO8MsDogRLv-ZPBnvROI,greek islands restaurant,41.87918309269135,-87.64742623446782,200 s halsted st,60661.0,4.5,3145.0
772,ChIJC_VOEdAsDogR4ORAoneQ7nY,gus's world famous fried chicken,41.88666389977879,-87.64934266534462,847 w fulton market,60607.0,4.5,1013.0
779,ChIJ88rMYbLSD4gRbAmj1oIglM8,salsa  picante,41.89902106934802,-87.6867792752013,949 n western ave,60622.0,4.2,160.0
780,ChIJ2RtTWRgtDogRPCjq4g_BsWo,omakase yume,41.883052886559646,-87.64468860442474,651 w washington blvd,60661.0,4.7,61.0
781,ChIJs58hV-XSD4gRSfFRz1tmC74,vegan plate,41.925265971958105,-87.66779312170318,1550 w fullerton ave,60614.0,4.7,171.0
782,ChIJ-55hZ3LJD4gR1wV2SHO4ypE,brandy's restaurant,41.995346484780534,-87.80696582318247,6262 n harlem ave,60631.0,4.3,506.0
784,ChIJ62Rb7EDSD4gR_UPI9zYiLnE,i-cafe sukur's place/pide ve lahmacun,41.95431818306882,-87.67476031983938,1812-1814 w irving park rd,60613.0,4.6,420.0
790,ChIJf_RkA3XTD4gRhrCDBk8IX2w,bacinos italian grill,41.93298721327045,-87.63652893636034,248 w diversey pkwy,60657.0,3.9,54.0
791,ChIJvUqGtZfRD4gRCUDxMbtfSBw,alexander's,41.994391180074615,-87.67029582459736,6158 n clark st,60660.0,4.6,393.0
793,ChIJqw_sliC0D4gRphGnBhlOCYU,manchu wok,42.008536400868735,-87.91442843927048,11601 w touhy ave,60666.0,2.2,84.0
794,ChIJJ08bYBjSD4gR-Hw7LbRbOO8,budackis drive-in hot dogs,41.96807497181902,-87.67901960462584,4739 n damen ave,60625.0,4.7,368.0
796,ChIJS6Ttf-bND4gReCF8NAUJN-U,cilantro taco house,41.96852200693321,-87.71237950497346,3336 1/2 w lawrence ave,60625.0,4.4,58.0
797,ChIJP1cwceTND4gRhnrVzX1YOWY,necessary & sufficient coffee,41.928351529514096,-87.71809710408121,3624 w wrightwood ave,60647.0,4.6,20.0
801,ChIJrc2yQaUsDogRBDIsaBIbnYU,macy's,41.88347312241303,-87.62772975002919,111 n state st,60602.0,4.2,7687.0
806,ChIJkSdEU0bTD4gRHHK_yCsX2ag,smoothie joint,41.94457106068293,-87.65378324443094,948 w newport ave,60657.0,5.0,4.0
807,ChIJqX5coRctDogR3DW47ijHFT8,nancys pizza,41.88317183484875,-87.65213310038212,1000 w washington blvd,60607.0,3.7,10.0
808,ChIJRSn-ONe1D4gRqNKoo-oJjvs,o'briens restaurant & bar,42.008536400868735,-87.91442843927048,11601 w touhy ave,60666.0,3.6,177.0
809,ChIJOX8PJTosDogRrAgvoAzz9Sc,bridgeport family restaurant,41.83069533520227,-87.64625091576728,3500 s halsted st,60609.0,4.1,535.0
811,ChIJlwkCJqbRD4gRQVYmkEcV8Hk,starbucks coffee ,42.00471569947857,-87.66100295990694,6738 n sheridan rd,60626.0,4.3,328.0
813,ChIJnXMPpnQxDogRoknUK0SSSGI,george's,41.79877258416171,-87.74149890973776,5341 s archer ave,60632.0,4.2,211.0
815,ChIJVeJy1dstDogRs69DU9VGJwI,convene,41.879885440300995,-87.62921159480324,131 s dearborn st,60603.0,4.7,31.0
816,ChIJ53s4RccxDogR1VHGXc8PwrI,huaraches & quesadillas mama quina,41.80061941881158,-87.71045584912062,3445 w 51st st,60632.0,4.4,30.0
824,ChIJvcIzJcEsDogRsfUdDIHbvZk,dylan's tavern & grill,41.87995707099538,-87.64128000375055,118 s clinton st,60661.0,3.9,627.0
825,ChIJcUMMFmrMD4gR_2NeZyiV9Ns,michella terrace,41.95317843969206,-87.75780441878462,5215-5219 w irving park rd,60641.0,3.4,24.0
828,ChIJI3EJbK3ND4gRGus4hDTymXU,thai aree house,41.94602897693361,-87.73546639404336,3592 n milwaukee ave,60641.0,4.7,105.0
830,ChIJIzY060bMD4gRvBdHfQrMBwU,ysabel's filipino cuisine,41.95348501505813,-87.750248227467,4908 w irving park rd,60641.0,4.1,86.0
832,ChIJ978yrBnTD4gRRu5g9ZGCV9w,blue door farm stand too,41.918097142688325,-87.64658724128225,711 w armitage ave,60614.0,4.4,359.0
834,ChIJb-MhOgctDogRwsrbYX5VpyY,"coyotes restaurant, inc.",41.85773127336358,-87.66335577631256,1451 w 18th st,60608.0,4.3,529.0
837,ChIJy0rNl8UsDogR6ZPf5veEEyg,catalyst ranch,41.88452928463143,-87.64494524641546,656 w randolph st,60661.0,4.6,125.0
840,ChIJ0-3yUgDTD4gR27-rQ2uSB8s,bolivar y lincoln venezuelan cafe,41.94319768420913,-87.65405954840116,3349 n sheffield ave,60657.0,5.0,12.0
841,ChIJN_uIe0jTD4gRSWMIsnQBKcY,grand mongolian hot pot,41.93503300287068,-87.64437894773916,2904 n broadway ave,60657.0,4.0,49.0
842,ChIJ9YB7D-LND4gR-J7JrvrvyzQ,"rice and roll, inc",41.97582181741593,-87.71172940864521,3312 w foster ave,60625.0,4.4,38.0
843,ChIJa2D5BrbTD4gRpmqrqYOW4TY,thorek memorial hospital,41.95464082537165,-87.65156901235385,850 w irving park rd,60613.0,2.2,153.0
844,ChIJYTCDnhDTD4gR4vyzLBwTFOc,toast,41.92193497846529,-87.64809461536863,746 w webster ave,60614.0,4.6,436.0
845,ChIJL7OTAYjMD4gRZp9BKELanBk,barbakan restaurant,41.93803468310132,-87.76633200355475,3143-3145 n central ave,60634.0,4.4,138.0
846,ChIJdVoqJiLTD4gR99FzGBxH5us,amatos pizza,41.91364779062639,-87.65292394889559,953 w willow st,60614.0,3.9,108.0
849,ChIJmV0dXhHSD4gRF1qChNGyLyo,monty gaels tavern & grill,41.96123477031228,-87.68397223026997,4356 n leavitt st,60618.0,4.1,202.0
852,ChIJPYXJ2dAxDogRDjq0ExCNNjk,dunkin donuts/baskinrobbins,41.785340191257184,-87.70317432384229,5931 s kedzie ave,60629.0,3.9,27.0
853,ChIJX5r8Qe3SD4gRI2Ssw7-bQ9U,subway sandwiches,41.93118733395421,-87.6770555951477,2754 n clybourn ave,60614.0,3.9,37.0
858,ChIJdTxmdGfSD4gRpv1cwBt-jkk,kitsch'n on roscoe,41.943104563544715,-87.67867885196077,2005 w roscoe st,60618.0,4.3,276.0
860,ChIJZxAVKSLTD4gRm9lVGc0CGl0,jaimitos burritos,41.913522386843255,-87.65294009283626,1781 n clybourn ave,60614.0,4.0,163.0
861,ChIJP_TVsKjTD4gRT3SAs0CWndw,new modern grill inc,41.939938440744974,-87.64911829546905,3171 n halsted st,60657.0,3.9,52.0
862,ChIJxUCmGZ62D4gRJOtCaj-8qSY,berghoff cafe,42.008536400868735,-87.91442843927048,11601 w touhy ave,60666.0,4.1,1185.0
863,ChIJfwU3T-IsDogRbUYDrddeCUw,papa johns pizza,41.86931406589003,-87.65625439904653,1151-1161 w taylor st,60607.0,3.5,228.0
865,ChIJ2_70aXq2D4gRpM0ndnx58sY,billy goat iv inc,42.008536400868735,-87.91442843927048,11601 w touhy ave,60666.0,3.8,183.0
867,ChIJvzyLFM8xDogR6NP3IzUkxs4,"paleteria la michoacana 1,inc.",41.786241182983545,-87.71077772448048,3500 w 59th st,60629.0,4.5,111.0
870,ChIJxazZ-jIuDogRYsvtkPHUFGw,super sub and gyros 2 inc.,41.7791184453953,-87.68575151846922,2451 w 63rd st,60629.0,4.3,60.0
875,ChIJFR3zFUHTD4gRiSGHi3J4B7Y,the second city,41.91143457806736,-87.63486625308641,1608-16 n wells st,60614.0,4.6,1932.0
879,ChIJb-a89_vRD4gRnk_zMMlrSt8,best sushi joon inc.,41.98134576518485,-87.69265967008852,5501-5503 n lincoln ave,60625.0,4.8,206.0
880,ChIJCUY9amwtDogRNKnTLw4cDfM,politan row,41.88337034289793,-87.65426146319142,111 n aberdeen st,60607.0,4.7,182.0
881,ChIJ431Gc63ND4gRzD0l8jpkpKY,barcello's pizza,41.945689474851214,-87.73490602734594,3576 n milwaukee ave,60641.0,4.2,83.0
882,ChIJsQBKKE7TD4gRzk4bQL8afws,velvet taco,41.902127532558154,-87.62850139922516,1110 n state st,60610.0,4.6,2708.0
883,ChIJo-n5p6_OD4gRK3iLvSWTGuQ,duke's,41.9846184303652,-87.76815926802584,5659 n central ave,60646.0,4.2,235.0
886,ChIJ3eYKluYxDogRGf6nxVsBvd8,chuck 'e' cheese's,41.80167003483172,-87.70393836191948,5030 s kedzie ave,60632.0,3.8,1093.0
887,ChIJFxC1nEwvDogR1YnBiq_SROY,just jerk cafe,41.750911572609574,-87.62048290701445,119 e 79th st,60619.0,4.2,152.0
889,ChIJxX9i6lAoDogRHtqMcbn92oA,royal flat caribbean jerk cuisine,41.76638575429732,-87.57248700864004,2134 e 71st st,60649.0,3.8,208.0
891,ChIJPTKQn0HMD4gR6kz3Jn6t_Qs,"frank's chicago shrimp house, inc.",41.95344289157839,-87.75439576492936,5052 w irving park rd,60641.0,4.6,321.0
892,ChIJ-2C09J_RD4gRkKygWoB3jMQ,flaco's tacos,41.99467730922356,-87.65903118070459,1116-1120 w granville ave,60660.0,4.1,435.0
893,ChIJYSWadWfSD4gRDyYP73pClFk,volo restaurant,41.94332263059663,-87.67884909733532,2008 w roscoe st,60618.0,4.5,154.0
895,ChIJMaceXcDJD4gRdlPbuf454PA,"soup & scoops, llc",42.00238973839252,-87.81707622356394,6709 n olmsted ave,60631.0,4.6,11.0
898,ChIJK7V4RtosDogRVn4jO04x7TE,umami burger,41.88422707893843,-87.65151813840151,945 w randolph st,60607.0,4.2,676.0
899,ChIJk6aPvC3MD4gRam5NOpcAcAU,shibam restaurant catering,41.967667844732325,-87.74018351190563,4748 n kenneth ave,60630.0,4.4,1473.0
902,ChIJwwFZ-k4tDogRImmv8YJ0Bs8,ghin khao eat rice,41.85222860979845,-87.67948332568865,2128 w cermak rd,60608.0,4.9,80.0
903,ChIJYaQTSE0tDogRxYPohY08kHg,village pizza,41.89585612058927,-87.68664748817481,2356 w chicago ave,60622.0,3.2,139.0
904,ChIJhUm4nWnJD4gRKb8_uKXUoRk,mo dailey's pub & grille,41.99148225930689,-87.7978116394828,6064-6070 n northwest hwy,60631.0,4.1,254.0
910,ChIJcYkFH2IsDogR4dEmj6YOkZk,chiu's great wall restaurant,41.85388797248053,-87.63450742813662,2127 s china pl,60616.0,3.7,121.0
911,ChIJ8eghBxrLD4gRn5wS31W_iSg,el alegre burrito,41.923884973566324,-87.80619241407982,7193 w grand ave,60707.0,4.2,264.0
912,ChIJJ_RWN2DMD4gRRe4sHdFWvNM,luna llena sports grill,41.93856565739177,-87.75855584047643,5247-5249 w belmont ave,60641.0,4.1,76.0
913,ChIJHycPz3PYEYgRY8K0fS2UqUQ,route 66 pizza,41.71011639743625,-87.53255649991655,10180 s indianapolis ave,60617.0,4.4,473.0
914,ChIJDTVJ_u3ND4gR7ejiBTAJwYI,"taqueria el aguila real, inc",41.96129816173357,-87.70795210214148,3152-3154 w montrose ave,60618.0,4.2,110.0
917,ChIJBReOeSEtDogRtG7X4jctrOQ,the hampton social,41.8918694700262,-87.6227485839992,164 e grand ave,60611.0,4.4,332.0
918,ChIJq2uomi3MD4gRy7qQfy-lpes,"1,200 sq.ft. - yemen restaurant, inc.",41.967667844732325,-87.74018351190563,4748 n kenneth ave,60630.0,4.2,228.0
920,ChIJ8aheqIjND4gRMPvtqlfFI3U,panda express ,41.94654251477401,-87.70247583120907,2949 w addison ave,60618.0,4.3,343.0
923,ChIJ6_b8Hq7TD4gRceO77qdWfMI,momo factory,41.94015821312763,-87.64455028174727,3202 n broadway,60657.0,4.6,33.0
924,ChIJSRaEyojSD4gROELFY-7C07o,forever yogurt - logan square,41.931465996205475,-87.68656175913836,2741 n elston ave,60647.0,4.4,109.0
925,ChIJC4USPKzTD4gRYcCRg302yps,jennivee's bakery,41.94183566648943,-87.6540188204789,3301 n sheffield ave,60657.0,4.7,343.0
928,ChIJy9hkIKTTD4gRVy6aNBKE6VI,zachi express,41.94015821312763,-87.64455028174727,3202 n broadway,60657.0,4.4,70.0
930,ChIJAxAs5pwsDogRXSCDOL7adbA,little branch cafe,41.865931036719715,-87.621494195204,1251 s prairie ave,60605.0,4.3,262.0
933,ChIJZ_fV-KcsDogRJ9wUoaiaJ_s,brown bag seafood company,41.88462477313731,-87.61925432402666,340 e randolph st,60601.0,4.4,451.0
934,ChIJC-JwnoLRD4gRJAl9yJetSO0,pita o' grille,41.983545872692474,-87.65818693624334,1103 w bryn mawr ave,60660.0,4.1,129.0
935,ChIJJfgmIucxDogR-pTWopUlk2Q,el conde s.a.,41.799597459689494,-87.7035849555802,5141 s kedzie ave,60632.0,4.2,113.0
937,ChIJH0OIs5csDogRyT915E-bUfc,pat's pizza,41.87396103697072,-87.63080445228692,628 s clark st,60605.0,4.3,163.0
938,ChIJXVEBudAxDogRYDr085GZFi4,la baguette bakery,41.78639755002676,-87.70320568633966,5857 s kedzie ave,60629.0,3.6,51.0
939,ChIJmX3iRrUsDogRjMUU6zqjDoU,the green door,41.894637024510644,-87.6372686344033,676-678 n orleans st,60654.0,4.4,921.0
941,ChIJKQD13sUsDogR7-XywAQdDIc,blackbird,41.884320409140116,-87.64360139964731,619 w randolph st,60661.0,4.6,762.0
943,ChIJczeWliHOD4gRjRBiEzlm-2M,croatian cultural center of chicago,41.997419715008114,-87.70142268157917,2845 w devon ave,60659.0,4.7,64.0
944,ChIJ61L0rQ7TD4gRUmeTXoflywk,snow dragon,41.930082886392576,-87.64368253576015,2618 n clark st,60614.0,4.1,217.0
947,ChIJcRkBDRwvDogRt1j-udmDSQQ,taylormade que,41.771932734101135,-87.64443484974524,6717 s halsted st,60621.0,3.9,184.0
950,ChIJP55duFbSD4gRhp6DMMAWloM,shawarma stop,41.9361719122101,-87.65340849377955,947 w wellington ave,60657.0,4.4,184.0
957,ChIJpVT4j07SD4gRzYLvwHOLWyQ,bull-eh-dia's tapas bar,41.94857494664379,-87.66390869973162,3651 n southport ave,60613.0,4.3,308.0
958,ChIJq7u58SPTD4gRqV7j2UThRLM,coffee lab & roasters,41.93317720763094,-87.65936357447279,2823 n lincoln ave,60657.0,4.9,40.0
969,ChIJM0cZsuLND4gRhbwKMtFveGM,charcoal delight inc,41.97564376186505,-87.70783409240099,3139 w foster ave,60625.0,4.3,537.0
971,ChIJbb0XkYDND4gRELc58bIr-Ug,food first chicago,41.99038358477244,-87.6903184871278,2415 w peterson ave,60659.0,4.9,10.0
972,ChIJK3tSmh3TD4gRLjutlegcLsY,pancake cafe,41.95127391161999,-87.64947156399771,3801-3805 n broadway,60613.0,4.3,285.0
974,ChIJ21QlcMYsDogRM_HmOgyBA34,hampton inn chicago-downtown/west loop,41.88373719653956,-87.64286160763208,116 n jefferson st,60661.0,4.5,765.0
975,ChIJ-yDclxstDogRwpAzpJYGOJw,rosebud cafe,41.86940905403705,-87.66419709016535,1500 w taylor st,60607.0,4.5,804.0
977,ChIJf2yxCIjMD4gRzLxNEcUYK5o,las fuentes ice cream corp,41.93701599774786,-87.76629652776613,3107 n central ave,60634.0,4.2,18.0
978,ChIJQYIycMYsDogRGXREWIQWv2U,homewood suites-chicago-downtown/west loop,41.88380025201622,-87.64286348545521,118 n jefferson st,60661.0,4.6,365.0
979,ChIJiZvUncIJXUARmHIbFK3JsR0,black sheep,41.9903656885798,-87.69353289993734,2535-2537 w peterson ave,60659.0,4.5,185.0
981,ChIJlcZ2Q28vDogRThtrr9i2MIw,"italian fiesta pizzeria, inc",41.747086098940834,-87.6440843829303,8058 s halsted st,60620.0,3.8,847.0
982,ChIJ_83WiZksDogR3YGEltfapCk,bull dog ale house,41.870502077951755,-87.62734617773438,901 s state st,60605.0,4.0,565.0
983,ChIJA2OQfX_SD4gRymzJS3xp4rY,pisolino,41.93928538446442,-87.6973359514559,2755 w belmont ave,60618.0,4.6,141.0
984,ChIJ7wTBn6bTD4gRLmcAOt_u8f4,chicken hut,41.94009690438851,-87.64454836666702,3200 n broadway,60657.0,4.5,202.0
985,ChIJw9rj_xLND4gRTsMqBVc7zqo,little pickle,41.92446191188847,-87.71957547584789,3703 w fullerton ave,60647.0,4.8,64.0
986,ChIJXSJYMe3OD4gRznZWUdFpiEg,east of edens,41.9971470073763,-87.7484909596666,6350 n cicero ave,60646.0,4.2,315.0
989,ChIJ2R3AoP_RD4gRETrRzgXjTIs,tostini,42.007932100342174,-87.67100362889559,1622 w morse ave,60626.0,5.0,3.0
992,ChIJfwWR-iO0D4gRB8ORfAaJy_Q,summer house (t2 main),42.008536400868735,-87.91442843927048,11601 w touhy ave,60666.0,3.5,346.0
993,ChIJPTDeeijSD4gRAtxl8Is3dzU,hutch american kitchen and bar,41.973261367299926,-87.66762285692627,1477 w winnemac ave,60640.0,4.2,298.0
994,ChIJ_ZQTa9UxDogRcq4HrnY4jPQ,little dennis,41.77893000705904,-87.69859994691997,3007 w 63rd st,60629.0,4.2,113.0
995,ChIJUyveJXrYEYgRzXVzZz8P-94,taqueria el charo de san francisco,41.702619232856534,-87.53430877312702,3655 e 106th st,60617.0,4.0,294.0
996,ChIJc5RFgaDTD4gRXhtybLECM0U,doppio coffee house,41.937724818923385,-87.66631958490133,3054 n greenview ave,60657.0,4.7,25.0
997,ChIJrb_wVb7ND4gRT_49nKdh9ww,chicken works and salad co.,41.95385813673397,-87.71999798686191,3658 w irving park rd,60618.0,4.6,330.0
998,ChIJ8c2DiaQsDogRPnIg1eFnKl0,flat top grill,41.881334805946864,-87.62633546646605,30 s wabash ave,60603.0,4.2,1486.0
1000,ChIJLzvZPEXND4gRjK0eCWHN9zE,o-manny  mexican restaurant,41.953627922832354,-87.71947320701166,3641 w irving park rd,60618.0,4.7,33.0
1001,ChIJJa9lgCjSD4gR_yPq_Dh4Un4,hot 'g' dog,41.97284251510629,-87.66782239421524,5009 n clark st,60640.0,4.6,374.0
1004,ChIJu-eVtX0rDogRnAL4r-ucyaM,aramark-soldier field,41.862628294037634,-87.61503109411329,1410 s museum campus dr,60605.0,4.5,6867.0
1015,ChIJqTKQaNjND4gRNtreNJKPdzc,gorilla sushi,41.96828872955171,-87.71367720190815,3407 w lawrence ave,60625.0,4.6,58.0
1017,ChIJtf6OVP_RD4gRNCUGnMBELfE,chop suey huang,41.97597608993619,-87.6924942225335,5202 n lincoln ave,60625.0,5.0,5.0
1018,ChIJhamgUKAtDogRYA-x3NDr7oc,chepe's tacos,41.85469470170735,-87.67576513516752,2007-2009 s damen ave,60608.0,4.2,48.0
1019,ChIJgWWAUCa0D4gRaYOwZv-QoFU,wicker park seafood and sushi bar,42.008536400868735,-87.91442843927048,11601 w touhy ave,60666.0,4.0,1040.0
1022,ChIJW_ZhkCouDogROmPka-3QMvw,golden fish & chicken,41.779173106768134,-87.69698885824074,2926 w 63rd st,60629.0,3.9,63.0
1025,ChIJc4m36rAsDogRlT1yxwUUp9o,goddess and the baker,41.88670659265085,-87.63162996998051,121 w wacker dr,60601.0,4.3,735.0
1026,ChIJR-Ub8K_ND4gRR9otHyzJfeU,brasa roja restaurant,41.946270550939566,-87.72754493145142,3556 n pulaski rd,60641.0,4.3,786.0
1031,ChIJsxosZWLND4gRH7vbeVKbuLg,revolution brewing,41.92353245816767,-87.69813956418871,2323 n milwaukee ave,60647.0,4.6,3036.0
1032,ChIJjWM-ScYsDogRPIe-X67fxw4,pastoral,41.88418750712781,-87.64111966683218,131 n clinton st,60661.0,3.8,16.0
1033,ChIJCwsPS8YsDogRY8la83_rqEc,jian,41.88418750712781,-87.64111966683218,131 n clinton st,60661.0,4.7,3.0
1034,ChIJ71B-5ybTD4gRH_Sm6_UBPac,hero coffee bar,41.88177941104997,-87.6543802690087,1100 w madison st,60607.0,4.7,42.0
1035,ChIJ-TzqtrQsDogRSnXY2PQOcnU,brickhouse tavern,41.94842204024845,-87.65732463824295,3647 n clark st,60613.0,4.4,352.0
1037,ChIJvTbDep7RD4gRw5HUfY39aG4,income tax,41.99069647164377,-87.66014073065755,5957-5959 n broadway,60660.0,4.6,245.0
1038,ChIJHSw-sVvSD4gR9mdt_5O1Rog,pho's thai cuisine,41.94250592179978,-87.67079776903307,3332 n lincoln ave,60657.0,4.5,191.0
1042,ChIJV6Zkwq3MD4gRhWdA4RR5puA,whale fish & chicken,41.902222995753284,-87.76768777794882,5650 w division ave,60651.0,3.7,235.0
1047,ChIJT0ijtcnSD4gRzBZskJHHeC8,fifolet cajun,41.903311984082535,-87.67657337106594,1942 w division st,60622.0,4.3,312.0
1048,ChIJpSdwFDzSD4gRTHCSjYkGRyQ,"first slice, llc",41.961619344855826,-87.67383267401581,4401 n ravenswood ave,60640.0,4.4,77.0
1049,ChIJ2wC8lNjTD4gRSnVgOLr552c,cracked on milwaukee,41.906629896738416,-87.67137623922982,1359 n milwaukee ave,60622.0,4.6,14.0
1050,ChIJZ83fkuLLD4gRf6m9rUbJHgw,the original nicks gyros,41.97671902984532,-87.7880013134877,5238 n nagle ave,60630.0,3.9,74.0
1051,ChIJU_569GIlDogRg2F8qEA7-i0,jj fish,41.735585506398934,-87.67022566460537,1861 w 87th st,60620.0,4.0,191.0
1052,ChIJBz-ZAXjLD4gR5o8BM_qi-gI,meson del taco inc,41.93786030231027,-87.78606939815405,3144 n narragansett ave,60634.0,4.4,524.0
1054,ChIJkzR9sqMsDogRJQ2rN0wekq8,starbucks coffee ,41.87814785854393,-87.62557273455765,55 e jackson blvd,60604.0,4.1,482.0
1055,ChIJmZWQ4rPLD4gR8WLfyBJLzjA,jimmy johns 561,41.95256564111005,-87.81127429615809,7329 w irving park rd,60634.0,4.1,115.0
1057,ChIJE35xBWjND4gRh6QNG_flwe8,la bomba restaurant,41.91728108852338,-87.70785660455108,3221 w armitage ave,60647.0,4.4,1450.0
1059,ChIJ0bovdggtDogRyJgynewxdN4,the jibarito stop,41.857873459406534,-87.66812208797606,1646 w 18th st,60608.0,4.5,621.0
1060,ChIJA5_SrZwxDogREWoqa1GtrtI,la cebollita restaurant,41.80764585138776,-87.73272527973799,4343 w 47th st,60632.0,4.2,197.0
1061,ChIJAfgxDgDTD4gRR3bm8uGMvZU,philz coffee,41.924250410054995,-87.64687752309652,2323 n lincoln ave,60614.0,4.3,26.0
1063,ChIJ07gp8LHND4gR-qZ4xyINf6s,bokeh,41.96716992383398,-87.7085787033688,4716 n kedzie ave,60625.0,4.9,14.0
1066,ChIJvTCU7tosDogROnktq8B92bE,j.p. graziano grocery co inc.,41.88425670381661,-87.64982670264364,901 w randolph st,60607.0,4.8,226.0
1067,ChIJuXoaRpssDogRWp0NjV3EZv4,jimmy john's,41.86607358683167,-87.62426767322485,1250 s michigan ave,60605.0,3.7,41.0
1068,ChIJS-H_g8gsDogREqE0ZhW6Z50,new line,41.885752607166296,-87.64116457925337,201 n clinton st,60661.0,4.2,331.0
1069,ChIJTW6i3abTD4gRGZDHBcu78d8,maison marcel,41.93811706325153,-87.64448281820779,3114 n broadway,60657.0,4.2,368.0
1071,ChIJ88RqlmwvDogRWhZr8tR7ONA,sunny's bar b que,41.75526282553509,-87.64430781136896,7626 s halsted st,60620.0,4.1,533.0
1073,ChIJp_A2KC3SD4gRjdGBo0oWUlY,chicago magic lounge,41.973913618676576,-87.66830041324025,5050 n clark st,60640.0,4.8,355.0
1077,ChIJ1z0Co9YvDogRUnkLWaWF6XI,new super sub and gyros,41.771927701832006,-87.69369337936176,2810 w marquette rd,60629.0,4.2,178.0
1081,ChIJKaQApdYvDogRl6FsJIl9q1o,red snapper,41.77193063059243,-87.69343854613754,2804 w marquette rd,60629.0,3.7,179.0
1084,ChIJnz9GihDND4gRpl02z2_65UA,best taco & burrito joint corp,41.92438086726451,-87.72620077208454,3947 w fullerton ave,60647.0,4.5,117.0
1086,ChIJyVCMGLDTD4gRhNmsytBKr5U,taco & burritos palace,41.94569849942014,-87.64929159731302,3507 n halsted st,60657.0,4.5,319.0
1088,ChIJNZmaVwjTD4gRWcQqopLyHCk,nando's peri-peri,41.932883864695405,-87.64627175168745,670 w diversey pkwy,60614.0,4.5,581.0
1089,ChIJwW47GBjSD4gRun349NzMdC8,siam country,41.96623164391728,-87.67896608867449,4637 n damen ave,60625.0,4.6,59.0
1090,ChIJiQRer-QtDogRIJbfvRasl3M,xochimilco mexican restaurant,41.96155024733558,-87.68027082609893,2030-2032 w montrose ave,60618.0,4.7,85.0
1092,ChIJM4kNchPOD4gR2BnhNviAMRQ,"martino's italian cuisine & pizzeria, inc.",41.990198520314,-87.71526237304487,3431 w peterson ave,60659.0,4.5,142.0
1094,ChIJA-raYGEwDogRDm7ZqcvcqPw,o's donuts & cafe inc,41.75466012439375,-87.7413847586052,7601 s cicero ave,60652.0,4.1,50.0
1095,ChIJX6y8DdosDogRkk09xSPIUe4,do-rite donuts,41.88542085068144,-87.6519886720252,181 n morgan st,60607.0,4.7,503.0
1096,ChIJSZVhROEuDogRE9i3JxUdeOk,long tung chinese kitchen,41.8781,,6237 s halsted pkwy,60621.0,3.3,127.0
1097,ChIJF2DcZgPTD4gRKm-aJ9pu4BM,bayan ko,41.961619281289565,-87.67502882185283,1810 w montrose ave,60613.0,4.6,102.0
1098,ChIJ-5DoqQAtDogR37OhGQp2b9w,la esperanza restaurant,41.85630665110072,-87.66265894498156,1864 s blue island ave,60608.0,4.5,247.0
1102,ChIJJ4enA2AwDogRA4BmTP_854A,new cajun grill,41.75466012439375,-87.7413847586052,7601 s cicero ave,60652.0,3.5,2.0
1104,ChIJk_Gw1wHTD4gRofyj_UUZA7w,taco & burritos los 3 pancho's,41.93245780886835,-87.65805862829535,1155 w diversey pkwy,60614.0,4.5,282.0
1109,ChIJWzcCi_fSD4gRlz7gyvWAfZ0,tutto fresco,41.93427577401413,-87.66831645215952,2901 n ashland ave,60657.0,4.7,74.0
1110,ChIJQa31rb4oDogRhOtBfrOS0C0,west indies international,41.75119526145043,-87.60365276290436,839-841 e 79th st,60619.0,4.2,6.0
1111,ChIJHTOVJVEtDogRb6UPD710kQU,la mom kitchen,41.834369784775426,-87.64634011031984,3312 s halsted st,60608.0,4.3,62.0
1112,ChIJ1VlyP6bND4gR8K1rXfdT1fA,great dragon 78,41.940493637306474,-87.72591131934738,3269 n milwaukee ave,60618.0,3.5,82.0
1115,ChIJNXIqxbksDogRpdDgCxaqLwg,left coast food + juice,41.8844994926551,-87.63523357601808,151 n franklin st,60606.0,3.6,49.0
1116,ChIJh_2702spDogR41jhyNK4rfs,harold's chicken shack ,41.79957000569888,-87.59623910783128,1208 e 53rd st,60615.0,3.6,543.0
1125,ChIJ8bLW37EsDogRcTtDZ9w13U8,stk chicago,41.889137270565854,-87.62843005984259,9 w kinzie st,60654.0,4.3,488.0
1126,ChIJ4X6PqBrLD4gR2yzTCfq0Spc,cafe ,41.92792701869176,-87.80624603489264,2625 n harlem ave,60707.0,4.2,194.0
1128,ChIJowIOkYMoDogR9_PR043n-qg,"taurus flavors, inc.",41.73953307422685,-87.58585188835282,8534 s stony island ave,60617.0,4.4,1675.0
1135,ChIJqepMS8YsDogRJ-X3_SHAmjU,polpetti espresso bar,41.88418750712781,-87.64111966683218,131 n clinton st,60661.0,4.6,8.0
1140,ChIJW5z6LdHTD4gRrQ_4NiElAnc,no bones beach club,41.91038685926323,-87.67683123852463,1943-1945 w north ave,60622.0,4.6,148.0
1141,ChIJa7XyMPAsDogR_3Ma_IVijN0,kohan japanese restaurant,41.86490157227489,-87.64629229053516,730-732 w maxwell st,60607.0,4.7,133.0
1142,ChIJHUmiYQ7PD4gRw04nHdeCazU,miss saigon express,41.98768869025668,-87.7030773448876,5848 n lincoln ave,60659.0,5.0,7.0
1143,ChIJHb_LF9XTD4gRKTLvEa3c5u0,new orleans seafood inc,41.97339650923979,-87.65679874855938,1046-1/2 w argyle st,60640.0,4.2,61.0
1144,ChIJSbfKRsUsDogRgHJ5GfV2ZZ0,la josie,41.88451685704581,-87.6473906819507,740 w randolph st,60661.0,4.4,678.0
1147,ChIJgaP0e4kxDogRu_TOhx5n3r8,all style buffet,41.814993602943076,-87.72370769529371,4305 s pulaski rd,60632.0,3.4,365.0
1149,ChIJFcjn1ZoxDogR_B0jt7Yzics,mariscos luis-ito,41.80768469489128,-87.72964242714635,4225 w 47th st,60632.0,4.4,383.0
1157,ChIJj5x_9ZktDogRQoOgKJq4B6g,ignotz restaurant,41.84775339576966,-87.68292779619232,2423 s oakley,60608.0,4.8,383.0
1160,ChIJ92MyUc7SD4gRFw3tfH1kt8w,starbuck's coffee ,41.90319559301502,-87.66996531168556,1701 w division st,60622.0,4.2,241.0
1163,ChIJG4IdAdAsDogR1tSvuEq-QGU,momotaro,41.88575836898289,-87.64841058851927,820 w lake st,60607.0,4.6,1140.0
1165,ChIJWU3z4THSD4gRyCmncbu3ajk,the mukase restaurant & africa foods,41.96518569194014,-87.66479140153986,1361-1363 w wilson ave,60640.0,4.4,109.0
1166,ChIJTalX_WvND4gRs5NPMPBTA64,punta cana restaurant inc.,41.921045051664414,-87.71214152490884,2200 n kimball ave,60647.0,4.6,244.0
1167,ChIJqxmlO1XSD4gRNome3-iToO0,will's northwoods inn,41.93720667186293,-87.6590215526174,3032-3034 n racine ave,60657.0,4.6,582.0
1171,ChIJNbKQElTTD4gRa6YVxe8YLkw,l'appetito,41.898948541729865,-87.62397498768969,875 n michigan ave,60611.0,4.3,133.0
1173,ChIJ67Mg51LND4gRzWIDq2wJZMc,jr's red hots,41.91746648068976,-87.68681623688606,2345 w armitage ave,60647.0,4.6,99.0
1174,ChIJPYLrO30lDogR2-5oi5BsYpk,eat and run  nfp,41.73562916449937,-87.66684642780346,1733 w 87th st,60620.0,3.7,96.0
1179,ChIJYyYwwcMyDogR9i0KzV1oWYo,"white castle system, inc.",41.88064565374098,-87.72337093987873,3901 w madison st,60624.0,3.4,662.0
1183,ChIJU2WksjLMD4gRcXOxzXeXw_s,xsport fitness,41.96622739208643,-87.73718362211928,4677 n elston ave,60630.0,3.7,356.0
1185,ChIJFe_FAUgtDogRNvsYZUbeFFk,metric coffee cafe,41.886649246847924,-87.67766942610926,2021 w fulton st,60612.0,4.8,97.0
1187,ChIJM52nJwjTD4gRUKS6Xmqjzy4,the gundis kurdish kitchen,41.93513842731886,-87.6466083401796,2909-2911 n clark st,60657.0,4.7,498.0
1188,ChIJO7f22rnND4gRDJ8P7Q3bas0,"fittingly delicious, llc",41.95355180443531,-87.72667299244586,3939 w irving park rd,60618.0,4.5,45.0
1197,ChIJdfNpBYXND4gRKukIKqAEa5s,chief o'neills pub and restaurant,41.94431195393441,-87.7052548221551,3471-3479 n elston ave,60618.0,4.5,868.0
1200,ChIJuyrgVQrTD4gRL1A3vwLSslg,chipmunks,41.93299009129136,-87.64086756860948,438 w diversey pkwy,60614.0,4.2,101.0
1203,ChIJLUxAaGwmDogR92PMFzhz-rE,damm donuts & sweets ,41.712433298700226,-87.60535893666004,700 e 100th pl,60628.0,3.6,9.0
1204,ChIJ3b7xarPLD4gRih_XiyBg-oA,bije's,41.95248836107066,-87.81440271000294,7455 w irving park rd,60634.0,4.5,141.0
1205,ChIJMRjvDIjMD4gRxgMXjF5zz2Q,pita grill,41.936346391711716,-87.76627386081529,3051 n central ave,60634.0,4.3,172.0
1206,ChIJ534mAirRD4gRQ4e-zXUDxhs,zaiqa restaurant,41.997674470047706,-87.6867563084304,2245 w devon ave,60659.0,4.1,133.0
1208,ChIJiVLhDCYtDogRzbEfRJIGD_g,buona,41.883252799966726,-87.64764601387161,804 w washington blvd,60607.0,4.2,101.0
1209,ChIJv2Nedg7SD4gRq25AFantVLY,taqueria 5 de mayo,41.96119792195588,-87.68929406845888,2415 w montrose ave,60618.0,4.6,168.0
1210,ChIJ6yXLOLExDogROz0sCEkExrQ,creameria la ordena ,41.784348531275114,-87.72306550106943,5952-5954 s pulaski rd,60629.0,4.4,111.0
1211,ChIJvRrUnb3RD4gR598Xg8MtYV8,laa-mushkila restaurant,41.99607255583781,-87.67035563206306,6258 n clark st,60660.0,4.6,42.0
1213,ChIJQ35qTZzRD4gRO5_ZqKVx6RQ,mango pickle,41.988272103883716,-87.66035869613218,5842 n broadway,60660.0,4.2,157.0
1215,ChIJC36BGm3SD4gRStSbhoeph14,chicago joe's,41.954163104720365,-87.68573203361376,2252-2256 w irving park rd,60618.0,4.0,311.0
1216,ChIJf57TdVnSD4gRi7jSsmpIMLw,pasta al gusto,41.94996659511004,-87.66395007499031,3737 n southport,60613.0,4.4,115.0
1218,ChIJwROcHV3TD4gR7_x7PSf9pbM,la calavera,41.89623435694756,-87.66401078882515,1438 w chicago ave,60642.0,4.3,35.0
1219,ChIJDTcxXrssDogR_Z08-xZq004,potbelly sandwich works llc,41.88059895501336,-87.62990739051766,55 w monroe st,60603.0,4.0,233.0
1220,ChIJAQRhRa4tDogRECZytgkY3AE,hanabusa cafe,41.881965330252534,-87.62679322159418,29 e madison st,60602.0,4.2,41.0
1221,ChIJfS3OhjQxDogRjFT4hbTJeLw,wingstop ,41.794017543044355,-87.7741473714093,6190 s archer ave,60638.0,4.0,201.0
1222,ChIJQwv5skksDogR2Ix6vBgNPQs,bridgeport coffee house inc,41.83794296556336,-87.65099272245668,3101 s morgan st,60608.0,4.5,562.0
1223,ChIJQeoM5GktDogRped-VjPAkWE,new love teriyaki,41.822735079015686,-87.69448432322359,3901 s california ave,60632.0,4.5,16.0
1224,ChIJ855DdcHRD4gRo6iEljO2bUc,ghareeb nawaz restaurant,41.99798375025185,-87.68142044788961,2032-2036 w devon ave,60659.0,4.1,3446.0
1228,ChIJP6pnyz3SD4gRtsERLIq63WE,glenn's diner,41.96161213476741,-87.67543734575274,1820-1822 w montrose ave,60613.0,4.5,718.0
1229,ChIJCW7NpqIsDogRMD4zkJADeko,panera bread,41.88216416733022,-87.62451427362218,2 n michigan ave,60602.0,4.1,1202.0
1230,ChIJZ6ApXd7RD4gRODXtF-o5DkM,udupi palace restaurant,41.997550032960476,-87.69402394650278,2543 w devon ave,60659.0,3.5,670.0
1231,ChIJW0fpRvDRD4gR3tAJvzroogk,le piano,42.008813688990735,-87.66635391877985,6970-6972 n glenwood ave,60626.0,4.0,17.0
1232,ChIJB-n9Gn7MD4gRXrrOwQueukc,jesscafe,41.93839141038951,-87.77211894533082,5819 w belmont ave,60634.0,4.6,531.0
1235,ChIJHToSNsEsDogRvIzxhKg6mq4,halsted street deli & bagel,41.87939279810978,-87.64162617690116,550 w adams st,60661.0,4.0,7.0
1236,ChIJ_btIID8xDogRMNwjRPFCL4A,cafe rosa,41.79613354689054,-87.76038586211911,5842 s archer ave,60638.0,4.2,376.0
1238,ChIJHVlQvmLMD4gR-9yoQaolNOc,lutnia restaurant,41.938697817413846,-87.76541113658556,5532 w belmont ave,60641.0,4.6,81.0
1239,ChIJK5CkxUksDogRQISq_GnET98,lina's pizza inc,41.837035785715216,-87.65126549188066,3132 s morgan st,60608.0,4.1,64.0
1241,ChIJbcVbWAjTD4gR-iOb1LidUAk,half shell inc,41.93287908914709,-87.64650054859365,676 w diversey pkwy,60614.0,4.5,506.0
1245,ChIJYXdStj8xDogR73-TsDLSrxU,villa rosa pizza,41.796517946551106,-87.75791779651013,5786 s archer ave,60638.0,4.3,337.0
1248,ChIJE7Jix0bMD4gRi7p4v0gjRUo,las tablas,41.95348584271347,-87.75073172757178,4920 w irving park rd,60641.0,4.0,659.0
1249,ChIJUayxwkUwDogRwd0BI_Z_MCI,burger king ,41.766201554459,-87.72259365751499,6950 s pulaski rd,60629.0,3.6,269.0
1250,ChIJldz0OPjLD4gR5vuX4omTqb0,earl's bbq,41.968688643613866,-87.77811463012365,4835 n austin ave,60630.0,4.4,578.0
1251,ChIJj4e1D0bMD4gR8235xTCIL6I,shilas restaurant,41.952761479601065,-87.74744674545474,3938 n cicero ave,60641.0,4.3,160.0
1252,ChIJYbTnXjMxDogR5fcNTEFwNQI,home run inn,41.78932932326538,-87.74164564419638,5700 s cicero ave,60638.0,4.3,1033.0
1256,ChIJVVUZukbMD4gRkUrUXq-u4qk,tatas tacos,41.953263831201625,-87.75109199615231,4929 w irving park rd,60641.0,4.4,246.0
1257,ChIJobdRqDzTD4gRXkHzsTIHZ04,disco taco,41.96147827109243,-87.66949202485075,1605 w montrose ave,60613.0,4.6,47.0
1258,ChIJFc9PntIxDogR1_3cZ-4IFnQ,celis nutricion,41.77901426474392,-87.70734216168728,3344 w 63rd st,60629.0,4.9,12.0
1259,ChIJB-4yO7wxDogRpxFzmrsmM7Q,jackys hot dogs,41.79456096593258,-87.72305196106626,5415 s pulaski rd,60632.0,4.7,722.0
1260,ChIJ89k3p7DTD4gRN715mVxTBFA,finley mahony's,41.94924954780584,-87.64825980109579,3701 n broadway,60613.0,4.4,295.0
1262,ChIJtWiHda_TD4gRsiIf9jqlMDs,wood,41.94281989836237,-87.64921416892889,3335-3337 n halsted st,60657.0,4.3,389.0
1265,ChIJn_piOW8vDogROETsSPNY6no,prime fish and hoagy,41.74810405559482,-87.64411513161957,8022 s halsted st,60620.0,3.9,85.0
1267,ChIJv7y6tMIsDogRmhQV_O_-3jM,primo's chicago pizza,41.876769809861614,-87.6479631493289,816 w van buren st,60607.0,4.3,226.0
1270,ChIJ40AMdScyDogRS9sk1ryylDc,burger king ,41.8188405804105,-87.72411292982041,4060 s pulaski rd,60632.0,3.7,355.0
1272,ChIJiV0IaiHTD4gRrlqepLgH2B8,mod pizza,41.91094876256121,-87.65315955127153,1000 w north ave,60642.0,4.4,253.0
1273,ChIJRwcF968sDogRQqumQflFR0U,"chick-fil-a,inc.",41.88527795660976,-87.62778287517118,177 n state st,60601.0,4.4,2642.0
1275,ChIJPWhRT3MtDogRHf91Vx4Xiag,rpm on the water/ rpm events,41.88796933530696,-87.63088633782915,317 n clark st,60654.0,4.8,5.0
1279,ChIJ0XOi9WPND4gRMPJVgNkLhAY,tropi cuba,41.922492669945136,-87.70235877406887,3000 w lyndale st,60647.0,4.3,250.0
1280,ChIJpdmrabMxDogRTe9qVB99_Cc,la michoacana favorita llc,41.779376798722666,-87.72292751334194,6236 s pulaski rd,60629.0,4.6,52.0
1281,ChIJJe-O-t_RD4gRNLnlHsRN7UI,karachi chat house,41.997661582786776,-87.68750364336269,2301 w devon ave,60659.0,4.1,394.0
1284,ChIJG2ajZyAtDogRLUTT1U74ovk,ella's corner,41.87786130020028,-87.65933207232132,1258 w jackson blvd,60607.0,4.2,71.0
1285,ChIJTVDiBbksDogR8twg49DuejM,hyatt place chicago downtown the loop,41.88264999321744,-87.63547347015259,28 n franklin,60606.0,4.4,1187.0
1292,ChIJlfzvLd3RD4gR-b0cL6G6U5o,serena  restaurant,41.99765535340108,-87.68784050345002,2309-2311 w devon ave,60659.0,3.9,279.0
1293,ChIJ7RRTZxXOD4gRGtsnHNfBrH0,burger king ,41.99570960302507,-87.71579472135497,6261-6265 n lincoln ave,60659.0,3.8,318.0
1298,ChIJ9aWY_qItDogRLqjZrUg1-kc,raymond's hamburgers & tacos,41.84878118113963,-87.67542917644128,2404 s blue island ave,60608.0,4.5,1836.0
1300,ChIJv5o2zv_ND4gRyD_TrQlFgOM,au bon pain,41.97634621482352,-87.69879442304911,5215 n california ave,60625.0,3.9,74.0
1308,ChIJJyYuVY_RD4gRBrYhEQEBqys,jerry's,41.98035903557327,-87.66817124313768,5419 n clark st,60640.0,4.4,582.0
1310,ChIJScbIo7XTD4gRFSMOxnNt7EA,emerald city coffee,41.953896414812974,-87.6546757421038,3938 n sheridan rd,60613.0,4.6,356.0
1313,ChIJKyqieAfSD4gRsCgnNtYLl5g,han bat restaurant,41.96843448613853,-87.6971682172991,2723 w lawrence ave,60625.0,4.4,150.0
1314,ChIJrwsYhIjRD4gRdfEjJ5LIBSI,potbelly sandwich works,41.97820526310159,-87.66849069015261,5304 n clark st,60640.0,4.2,155.0
1315,ChIJ_QijSLbSD4gR8_o2ZnmPcoI,silli kori,41.90304273718245,-87.67934668623802,2053 w division st,60622.0,4.4,153.0
1318,ChIJE8gxNqItDogRjvi4xXfsQco,"great china house, inc.",41.85031569194551,-87.67593597054196,2300 s damen ave,60608.0,4.2,37.0
1321,ChIJY6ac104wDogRUBzEpvrApOc,birrieria de la torre mexican restaurant,41.77061934281714,-87.72270418892046,6724-6726 s pulaski rd,60629.0,4.1,381.0
1326,ChIJv8EGSBEmDogRZDvjV-Slln4,fanfares catering,41.72215178539514,-87.60520403707493,742 e 95th st,60619.0,4.8,52.0
1327,ChIJyT0MZ5YxDogRwkR0mfCdRnw,china ho restaurant,41.79901235310339,-87.72318127025324,5151 s pulaski rd,60632.0,3.7,110.0
1328,ChIJreQgx8EsDogRobeQdFyhZ5M,starbucks coffee ,41.876855139603904,-87.6415440740816,550 w van buren st,60607.0,4.4,96.0
1329,ChIJC2OExK3TD4gRFv1nOIRnJoQ,pick me up cafe,41.94382098436834,-87.65396258925855,3408 n clark st,60657.0,4.6,932.0
1332,ChIJJ9aZ0nUwDogRR34Mw5mmKmw,groucho's bar & grill,41.74051514320913,-87.72147836324686,8355 s pulaski rd,60652.0,3.7,89.0
1333,ChIJ4QL7WdCzD4gRvPvlTs69YHQ,juicerx,41.8932571852765,-87.62234986002646,211 e ontario st,60611.0,5.0,39.0
1335,ChIJBT-TSpgsDogR9qfjZqPqArg,south loop club inc,41.87305557644521,-87.62741781254496,701 s state st,60605.0,3.6,515.0
1336,ChIJ-VwdXr8sDogRJcOY6JEYwYU,pret a manager,41.879272838776735,-87.63410319837826,211 w adams st,60606.0,4.0,82.0
1338,ChIJm5KWb6MsDogRgNrpuFIvzoY,tesori,41.87942967304209,-87.62527091340576,65 e adams st,60603.0,4.2,227.0
1339,ChIJJVzrE93ND4gRPOkc38i4Npk,hiromi's oriental restaurant,41.96823261185367,-87.71865106002251,3609 w lawrence ave,60625.0,4.2,40.0
1341,ChIJczemZwXSD4gR5EQH8mQYVd4,chubby wieners,41.96634736406372,-87.68898364635334,4652 n western ave,60625.0,4.5,140.0
1343,ChIJp8RUGZotDogRmqMcnYjxS_0,bruna's cafe,41.847573840855105,-87.68321583947979,2424 s oakley ave,60608.0,4.4,254.0
1344,ChIJZzVShavTD4gRTqKz1xUVFww,native foods cafe,41.93978759587182,-87.65496629170038,1023 w belmont,60657.0,4.5,464.0
1348,ChIJ3QCgN7LND4gRnjTOpOuXEWE,to's soul grill llc,41.902304746611435,-87.76065826255068,5360 w division st,60651.0,3.8,24.0
1352,ChIJ7SflatDTD4gRVNyCgW82olg,louis a. weiss memorial hospital,41.96685955069908,-87.64913504207085,4646 n marine dr,60640.0,3.0,189.0
1353,ChIJqbQFMJDLD4gRJxlq1ioRimg,tinto & tapas,41.937859427847215,-87.82625503087803,7958 w belmont ave,60634.0,4.9,42.0
1354,ChIJV04ThavTD4gRwTED9qi2cXk,chipotle mexican grill,41.93978650135143,-87.65503926380848,1025 w belmont ave,60657.0,4.3,238.0
1355,ChIJTZem5VPTD4gRiRBS1ZjgYhg,space519,41.89853034425216,-87.62177740924473,200 e chestnut st,60611.0,4.8,22.0
1356,ChIJiRNIDgbTD4gRYUCL8Hhtcm8,raj darbar,41.930751911450216,-87.64909233354551,2660 n halsted st,60614.0,4.0,122.0
1357,ChIJQcGQcRwtDogRKLvKJfwybjQ,kimura sushi,41.86943380987853,-87.66264704407905,1422 w taylor st,60607.0,4.1,91.0
1359,ChIJpyybK3DSD4gRzUpTXhocPCc,reclaimed bar and restaurant,41.948345864608,-87.6881554885054,3655 n western ave,60618.0,4.5,153.0
1361,ChIJTT-OA3IpDogRbjbW_O0DpjY,mellow yellow,41.799656205200755,-87.58873571085917,1508 e 53rd st,60615.0,3.6,505.0
1362,ChIJ7RB-UdPSD4gR0VhtxMG-ElA,five star bar & grill,41.89624197172842,-87.66344067613402,1424 w chicago ave,60642.0,4.4,476.0
1366,ChIJ7wLeR-XSD4gRJYr9J03XHFQ,mr. submarine,41.92505954010253,-87.66684080437142,1525 w fullerton ave,60614.0,4.0,208.0
1367,ChIJSdmkIFMrDogRQGLxV0cE4rY,caffe' oliva,41.892063601121784,-87.61253372392397,550 e grand ave,60611.0,3.3,210.0
1368,ChIJB0fLDrLMD4gRPRzUu_t8Mz8,see thru chinese restaurant,41.902029722868406,-87.76602278744853,5609 w division st,60651.0,4.0,123.0
1371,ChIJwbVdFIzMD4gR0tcrPMtiTfw,el mirador restaurant,41.93145721422521,-87.7605265711278,5340 w diversey ave,60639.0,4.1,374.0
1372,ChIJyfbZMbwxDogRYc3X4BWIuec,las islas marias,41.79496271461644,-87.7230632784749,5401 s pulaski rd,60632.0,4.1,449.0
1375,ChIJ602BrjQtDogRY8RBlUEBeHk,arami,41.89586195493881,-87.67335103601313,1829 w chicago ave,60622.0,4.4,282.0
1377,ChIJVVUFzr_RD4gRnirRjrli0es,safari somali cuisine,41.996149190826735,-87.6758327514942,6319 n ridge ave,60660.0,4.9,34.0
1378,ChIJgaAwXWkvDogR1GfJ8gSKNcA,salaam restaurant and bakery,41.75078749848056,-87.64166664542023,700-706 w 79th st,60620.0,4.6,51.0
1379,ChIJtw8ggu4vDogRnX9xGdf6TaU,south china kitchen ii,41.7508179067163,-87.68301459511926,7836 s western ave,60620.0,3.5,108.0
1385,ChIJz4hBjLDLD4gRL9QI_Q3XXio,mr beef on harlem,41.9512746694024,-87.80706638213873,3917 n harlem ave,60634.0,4.5,664.0
1387,ChIJ5bqykw8uDogR9wtMD0wcGes,birrieria jalisco,41.80851120585815,-87.68669535004372,2462 w 47th st,60632.0,4.3,143.0
1392,ChIJT_MSz-YxDogR3i8Z5-s_POk,restaurante amatepec estado de mexico,41.800721300516216,-87.7030730806826,3143 w 51st st,60632.0,4.2,282.0
1394,ChIJs22i7y47DogR9Z8P7KYMEKc,la fiesta,41.816291737620006,-87.7008897812118,4248 s archer ave,60632.0,4.4,219.0
1395,ChIJDxvonFzTD4gRnhtJ_WGiN_I,yakisoba misoya,41.934025827790535,-87.64604914362694,2852 n clark st,60657.0,4.0,10.0
1396,ChIJCT-1VtvSD4gRKSbZtmJRcWs,hollywood grill,41.91051963529621,-87.66774968632782,1601 w north ave,60622.0,4.3,1423.0
1398,ChIJGRvJiajTD4gRONUL7bDThQg,the clark street dog,41.93741731854895,-87.6487956064543,3040 n clark st,60657.0,4.3,1000.0
1399,ChIJX7bN9g_ND4gRj3hryND6eS4,el cubanito,41.92793172691967,-87.72672316596856,2555-2557 n pulaski rd,60639.0,4.7,1157.0
1401,ChIJw0m-V24tDogRqzZgMM4exd8,damenzo's,41.871853705220325,-87.68603684594997,741 s western ave,60612.0,4.1,1034.0
1407,ChIJpRXE6D3SD4gRcrOFLlkppP8,chicago's pizza,41.961372932887095,-87.6768252331503,1919-1921 w montrose ave,60613.0,4.3,325.0
1408,ChIJJQzYM9svDogRzaM_VqKFqzg,hogar cafe,41.793586506181114,-87.6934808799233,2753 w 55th st,60632.0,5.0,4.0
1409,ChIJd1O9q2LMD4gRIuQdUX3YaxQ,restaurant santiago,41.93792129538633,-87.76632740192993,3139-3141 n central ave,60634.0,3.2,46.0
1411,ChIJ242mzJ86DogRlQr4FfkAcAs,blue bird bowl,41.73756101683657,-87.71916759274954,3900 w columbus ave,60652.0,4.2,369.0
1412,ChIJk1fMfwQwDogR1QVnQyrtSec,del campo pizzeria,41.745207799468396,-87.70241337651905,8130 s kedzie ave,60652.0,4.5,104.0
1415,ChIJp7045GUvDogRaTHiek6BKpI,the hoagie place inc,41.745618962822654,-87.64374767916266,8147 s halsted st,60620.0,4.4,376.0
1417,ChIJA6L5oBrSD4gRlOqsMYbT3vo,rolls n bowls express,41.965883851821715,-87.68660115678574,4635 n lincoln ave,60625.0,4.5,115.0
1419,ChIJw4hZKLbSD4gRYMhn0n5j_0I,picante taqueria,41.903287727329534,-87.67798988240149,2016 1/2 w division st,60622.0,4.2,232.0
1421,ChIJBdv0nKjND4gRRpns2OSXwS4,city cafe inc.,41.94014438603069,-87.72735832046867,3234 n pulaski rd,60641.0,4.4,169.0
1423,ChIJDwcjwjDSD4gRLON1VoUmgtA,subway sandwiches ,41.96152382474649,-87.66603985555811,1427 w montrose ave,60613.0,3.5,21.0
1425,ChIJFU0Z_NDSD4gRnjaHlDG4fqY,seadog sushi bar,41.90348136734626,-87.66510268565546,1500 w division st,60642.0,4.3,231.0
1430,ChIJHeQm7qosDogRBoyLIHx58yQ,timothy o'toole's,41.89336539713901,-87.62042205744731,622 n fairbanks ct,60611.0,4.4,2853.0
1431,ChIJ67U3rPjRD4gR63E4DfU8FLc,mr submarine,41.97628834368919,-87.69250645233689,5212 n lincoln ave,60625.0,3.6,158.0
1432,ChIJ5fLrvzYtDogR9CDbDbgSVVA,retro fitness,41.8779878069696,-87.62445980070322,310 s michigan ave,60604.0,4.5,20.0
1433,ChIJt3uKqbIxDogR3nakgZ5nVYA,los pancho's restaurant,41.77849967060516,-87.726735587086,4139 w 63rd st,60629.0,3.7,104.0
1435,ChIJadn1XsfSD4gR1tKAzVuHaY0,stans donuts,41.90999519941597,-87.67759908709834,1560 n damen ave,60622.0,4.6,1085.0
1436,ChIJN2BF4I_RD4gRUNJDKbo-Hlw,diamante  azul  restaurant,41.98506583014985,-87.66894906631796,5661 n clark st,60660.0,4.7,159.0
1441,ChIJ825Y6tAxDogR8ZfimK00zJE,burritos aida,41.786130727,-87.70386322007782,3211 w 59th st,60629.0,4.5,67.0
1442,ChIJ4V4IQanRD4gR74n0tg3eyak,the growling rabbit,41.99016229520979,-87.6604180086472,5938-5940 n broadway,60660.0,4.4,501.0
1445,ChIJMeHiBNnND4gRUXbfx4nNnoA,carnitas la esquinita,41.95395117084635,-87.71398210821671,3424 w irving park rd,60618.0,4.3,145.0
1447,ChIJ50khaxUxDogRLdBUZLBj_IY,tequila cj restaurant,41.79689999850765,-87.75543001827512,5728 s archer ave,60638.0,4.3,856.0
1451,ChIJPwCCr0zSD4gRDTsiOOyqtrA,yakzie's bar & grill,41.94930115363968,-87.65837528684472,3710 n clark st,60613.0,4.2,348.0
1452,ChIJdfQpxXUwDogRY44Foq2MeP8,mc donalds,41.739860522047465,-87.72145630261183,8415 s pulaski rd,60652.0,3.3,666.0
1454,ChIJ7asTBiPTD4gRgCIoanW7tGY,le nocturne,41.96935748217429,-87.65982656853042,4810 n broadway,60640.0,4.4,9.0
1457,ChIJKVM603TRD4gRnmNXfarUYv0,the waterfront cafe,41.99520222185558,-87.65539830565382,6219 n sheridan rd,60660.0,4.2,346.0
1459,ChIJWVurJ5AxDogRzQoPr1mSbO0,papa santiagos pizzeria,41.80773958553553,-87.72532519083764,4045 w 47th st,60632.0,4.4,81.0
1461,ChIJ9SqXjcEsDogRfVluml0SGHM,ruin's daily,41.87709413528649,-87.6426549740065,328 s jefferson st,60661.0,4.4,189.0
1464,ChIJvRGB5-_TD4gRFTjgTa5OkBk,fancy plants cafe,41.939032813292386,-87.64494165404354,613 w briar pl,60657.0,4.6,68.0
1465,ChIJVTaqSvAsDogRVj0LsZ4eHLs,galata llc,41.864688221061456,-87.64574326756642,717 w maxwell st,60607.0,4.5,218.0
1466,ChIJ0xjLq7ksDogRGvH5dM3Q9ZQ,naf naf grill,41.88309460284483,-87.63563266074922,309 w washington st,60606.0,4.4,613.0
1468,ChIJtTepCUbSD4gRDYMgHBtsQvs,a. j. hudson's public house,41.95073516884215,-87.66881290118064,3801-3805 n ashland ave,60613.0,4.5,406.0
1471,ChIJV1KsxTrND4gRNQqz6e3fUjo,restaurant & pozoleria san juan,41.90881690342745,-87.7263339710053,1523 n pulaski rd,60651.0,4.0,493.0
1473,ChIJYfhnK-XRD4gRB7XY4XFSZwY,sunset pho caffe,41.93411787418876,-87.64612384665861,2856 n clark st,60657.0,4.7,252.0
1480,ChIJPV68qlsyDogRRXhn4O15Hh8,la antigua hacienda,41.8500093737413,-87.72457103561378,2249 s pulaski ave,60623.0,4.2,245.0
1482,ChIJXzCKmuInDogRH-Cbgd7jOUY,cocula restaurant,41.73416430873488,-87.55121061634853,8847 s commercial ave,60617.0,4.1,1018.0
1483,ChIJ3WpJjQ3SD4gRx2PWnJIWDek,celtic crown,41.95953927581488,-87.68848380383307,4301 n western ave,60618.0,4.3,274.0
1484,ChIJV3o8yNwsDogRZJRkeZ8mZxk,green street local,41.87950076686327,-87.6486081180254,130 s green st,60607.0,4.4,467.0
1485,ChIJw8MaxUjJD4gRpJufIruGuLo,jet's public house,41.993375763055695,-87.7842752194862,6148 n milwaukee ave,60646.0,4.3,61.0
1486,ChIJS1BWjKUsDogRTzKzvjcNxP4,sweetgreen chicago llc,41.88453096378336,-87.62460204460079,150 n michigan ave,60601.0,4.3,149.0
1487,ChIJNbKQElTTD4gRREaOJN5ZUdw,signature room at the 95th,41.898948541729865,-87.62397498768969,875 n michigan ave,60611.0,4.3,4392.0
1491,ChIJm-w5xQLMD4gRmUxURRF20jU,kings  gyros ,41.97547236947101,-87.76738848299047,5233 n milwaukee ave,60630.0,4.0,631.0
1493,ChIJbRig2FItDogRLoRJJB0HMBM,star lounge coffee bar,41.89559835844706,-87.69016094671238,2521 w chicago ave,60622.0,4.8,652.0
1495,ChIJydkiIKjLD4gRUbTkNgyLFW4,"taco burrito king i, inc.",41.938534926545614,-87.80691267922066,3216 n harlem ave,60634.0,4.2,614.0
1502,ChIJjddgUxfTD4gRbtUMTdmlxVQ,wonder chop,41.925004306309255,-87.68841336320456,2418 w fullerton ave,60647.0,5.0,15.0
1504,ChIJK5WKjt7SD4gRxcuBA_R_aXo,ada street,41.91256808104945,-87.66216724918102,1664 n ada st,60642.0,4.6,250.0
1505,ChIJL_SmTAXSD4gRK6JRRN7suvo,rosded restaurant,41.96682443406701,-87.68789283801166,2308 w leland ave,60625.0,4.4,84.0
1508,ChIJTblVlsQsDogRSAXP93WjvMA,crowne plaza chicago metro,41.88167494824671,-87.64697413276842,733 w madison st,60661.0,3.9,2061.0
1511,ChIJQUB-SMIsDogRy1H40xkhLw4,sdg dubu so gong dong tofu & bbq,41.87787173863181,-87.64450945964907,711 w jackson blvd,60661.0,4.3,38.0
1514,ChIJhyTEzHHSD4gRe9jvXBTFHYo,alley dogs inc,41.94863688380228,-87.68845750645744,3700 n western ave,60618.0,3.9,19.0
1515,ChIJK8TYrUzSD4gRn70W8RF091s,wrigleyville dog,41.949894520989645,-87.65851083690285,3735 n clark st,60613.0,4.0,365.0
1516,ChIJl1XHsQDTD4gRGgqltZtxFHc,bar cocina,41.93450053757158,-87.65377549058546,2901 n sheffield ave,60657.0,4.0,680.0
1518,ChIJQUB-SMIsDogRxd4VvTRqQiw,izakaya yume,41.87787173863181,-87.64450945964907,711 w jackson blvd,60661.0,3.3,9.0
1520,ChIJN0L8q9LSD4gRNSMWSKNjIM0,beatnik,41.896179409912364,-87.66752544530634,1604-1608 w chicago ave,60622.0,4.5,903.0
1521,ChIJLZh97X3MD4gRSscPyRDxDdI,tacos el tio 2 inc.,41.93841272966437,-87.77043454131244,5737 w belmont ave,60634.0,3.7,332.0
1524,ChIJl730YLssDogRbHbGjgYV4bQ,dollop coffee co,41.88059895501336,-87.62990739051766,55 w monroe st,60603.0,4.3,167.0
1526,ChIJybcyQfAsDogR_t_8mJ6UHf0,joy yee noodle,41.8644107471973,-87.6466915416751,1335 s halsted st,60607.0,4.2,552.0
1527,ChIJlVI_rrfTD4gRDyXNsYvcowI,chicago uptown gallery & cafe,41.9736553290134,-87.65508454661722,5010 n sheridan rd,60640.0,4.2,18.0
1528,ChIJv4nE3OQvDogR0krDK2kqhL0,siblings soul food,41.74589127255891,-87.663178324629,8127 s ashland ave,60620.0,3.8,161.0
1530,ChIJM5WNXp7ND4gRdrX2wEEWTu4,albany place bar & grill,41.963927828458594,-87.72776333434071,4551-4553 n pulaski rd,60630.0,4.7,22.0
1531,ChIJO_laUrosDogRpB4bTXohmc0,starbucks coffee ,41.88310907896613,-87.62697603370881,25 e washington st,60602.0,3.4,49.0
1532,ChIJYYqxZLosDogR8byCh7ZhJzM,pita express,41.88458626715457,-87.63101044588598,100 w randolph st,60601.0,4.1,22.0
1535,ChIJA9nLacAsDogRR3c0ZIOS_L0,baba's village,41.88458626715457,-87.63101044588598,100 w randolph st,60601.0,3.9,288.0
1538,ChIJj3c_ZFIrDogR5ELB81TYkAc,the spirit of chicago,41.89209413686178,-87.61156988394657,600 e grand ave,60611.0,4.4,742.0
1539,ChIJdf6X6b4sDogR7x_nqPBi4LA,protein bar,41.87842162672269,-87.63506330589429,235 s franklin st,60606.0,4.2,173.0
1541,ChIJO88-P2PSD4gRQZy09jczoRk,stevo's grill,41.939581685727795,-87.68666227599451,2326 w belmont ave,60618.0,3.6,117.0
1542,ChIJ2dqAZe0xDogRsMYG8SjrbTA,la chaparrita,41.81013028086804,-87.6977853641099,4559 s richmond st,60632.0,3.7,29.0
1545,ChIJmxTC2fw7DogRYTx3jewXQkk,"sunrise breakfast & lunch restaurant, inc.",41.69914649461559,-87.72051218013884,10641-10645 s pulaski rd,60655.0,4.6,106.0
1546,ChIJr79R4w3SD4gRi58gwRaL7TY,sushi king iii,41.96062542441431,-87.68851446775345,4337 n western ave,60618.0,4.3,34.0
1549,ChIJj3c_ZFIrDogRVoLo08ENikY,mystic blue cruises,41.89209413686178,-87.61156988394657,600 e grand ave,60611.0,4.1,351.0
1550,ChIJwY5o9xnMD4gR-Ki5JAzgwlI,taqueria la estrella,41.968028363337005,-87.76105969691393,4808 n milwaukee ave,60630.0,4.2,90.0
1555,ChIJsx1JsIXMD4gRXcUSRFhyZk4,taqueria diversey,41.931141434304564,-87.76822210832735,5649 w diversey ave,60639.0,4.1,224.0
1556,ChIJ6caa2LksDogRQjHJtfVzgEM,mixed greens,41.885210726675524,-87.63525120951384,175 n franklin st,60606.0,4.6,59.0
1558,ChIJp3DAPQUtDogRwgfkcafNGFs,captain hooks,41.865188763426644,-87.66646924032864,1600 w 13th st,60608.0,3.8,231.0
1562,ChIJZ5KoQ0rTD4gRtkms1rcWk0w,the liquor box,41.898696269812156,-87.63710466143999,873 n orleans st,60610.0,3.6,267.0
1564,ChIJhcBjliC0D4gRPBgbJbbVRQE,zoots,42.008536400868735,-87.91442843927048,11601 w touhy ave,60666.0,2.7,74.0
1566,ChIJez32CP_SD4gR8ExMOFLL8O8,the kids' table,41.93388147268545,-87.66077309643255,2864 n lincoln ave,60657.0,4.0,6.0
1567,ChIJu_tp4r4sDogRT1rqboX4Ot8,metropolitan club,41.87856015362371,-87.63652387205532,233 s wacker dr,60606.0,4.5,135.0
1570,ChIJpx2tcqssDogRlG6wdikKIi0,dunkin donuts baskin robbins togo's,41.89267129068561,-87.6225722024813,200 e ohio st,60611.0,3.8,55.0
1578,ChIJ2Y1amGLLD4gRbPZAoq5FgFs,cozy corner restaurant and pancake house,41.979836274250594,-87.80712741724709,5454 n harlem ave,60656.0,4.4,348.0
1580,ChIJVwHOlyi0D4gRaUAtw2KwQHE,salad works,42.008536400868735,-87.91442843927048,11601 w touhy ave,60666.0,2.8,24.0
1581,ChIJv-JJcfEoDogRZNGDL6nL10k,number 1 chop suey,41.76113827175918,-87.58634581379175,7342 s stony island ave,60649.0,4.0,103.0
1583,ChIJNX-6nwjSD4gRrMdXmAmLVN8,rockwell's neighborhood grill,41.96580612741261,-87.69386749212471,4632 n rockwell st,60625.0,4.5,422.0
1585,ChIJ93Yej74oDogRsNtbKZ75RYw,"east of the ryan,inc",41.7514313030561,-87.60211212497248,914 e 79th st,60619.0,3.5,175.0
1586,ChIJH_JILP8xDogR72yCPl4L6rQ,paco's tacos,41.815123777699924,-87.70233076057335,4311 s archer ave,60632.0,4.5,1378.0
1590,ChIJPZeks53RD4gR_ED7pqrOzA8,mas alla del sol,41.98843358081921,-87.660363697635,5848 n broadway,60660.0,4.7,420.0
1592,ChIJ9y3MWF_ND4gRGU6FusEenH8,kim's home cooking,41.96933589360575,-87.7083564494656,4829 n kedzie ave,60625.0,4.9,28.0
1593,ChIJSanlh4_MD4gRXlAQ6Lsefjs,el taconazo  la fiesta inc.,41.92949530063107,-87.76633029843158,2700 n central ave,60639.0,4.2,1193.0
1595,ChIJPwJr-D7MD4gRCM2gP6SzrCA,hops and barley,41.96036018734975,-87.75406627395746,4359-4361 n milwaukee ave,60641.0,4.3,234.0
1596,ChIJrZa6SFTTD4gR0EUTEwYmZB4,francesca's on chestnut,41.89853034425216,-87.62177740924473,200 e chestnut st,60611.0,4.4,467.0
1597,ChIJ_-gzgVLTD4gRI_BsgDPQcEQ,einstein bros. bagels ,41.89743861270861,-87.62564026554415,109 e pearson st,60611.0,3.4,98.0
1606,ChIJGeltslUzDogRosUA155HQZM,peeples taco's,41.89483794336363,-87.77408918515033,5944 w chicago ave,60651.0,3.7,486.0
1609,ChIJ2cSYZgbSD4gRFqZDoCZtUVo,the red lion lincoln square,41.968154220758215,-87.69363812631346,4749-4753 n rockwell st,60625.0,4.5,229.0
1610,ChIJuXoaRpssDogRXj3rMK1NLM8,jimmy john's- state,41.87248659175621,-87.62739891962092,725 s state st,60605.0,3.6,50.0
1612,ChIJsaZzLqUsDogRySpDYhrPm6I,magnolia bakery,41.88342263701489,-87.62802165207536,108 n state st,60602.0,4.3,1193.0
1622,ChIJH8louG4vDogRk0EhcCZQgtk,ho ho restaurant,41.75032238740821,-87.64418240605828,7908 s halsted st,60620.0,4.4,121.0
1628,ChIJm0z-vL0sDogR0e0-k9fqw6g,caffe baci inc.,41.88254020245772,-87.62453094472777,20 n michigan ave,60602.0,4.3,173.0
1629,ChIJsaZzLqUsDogRcTmgL1ouv3U,lifeway kefir shop,41.88342263701489,-87.62802165207536,108 n state st,60602.0,4.5,69.0
1630,ChIJVxShT3TTD4gR0f9B_NmrChA,cafe mimoza,41.96845247365508,-87.69487467681566,2625 w lawrence ave,60625.0,4.0,3.0
1633,ChIJ-yL4ihnMD4gRt6O7SqJMQ8Y,excelsior garden,41.96931524329953,-87.76182025540278,4855 n milwaukee ave,60630.0,4.3,74.0
1634,ChIJx7E_ESsuDogRXhXylS19Vjk,d arco's pizza inc.,41.77899473635989,-87.69421036159838,2819 w 63rd st,60629.0,3.6,185.0
1639,ChIJdZIK1KjTD4gR4IWncyv3ax8,11 degrees north,41.9400768547176,-87.65029486799551,824 w belmont ave,60657.0,4.7,136.0
1640,ChIJhSAukBQzDogRL9e5hIuQo-M,c & p fried rice 2,41.87312341300097,-87.75495571291584,524 s laramie ave,60644.0,4.3,72.0
1641,ChIJT2FHPjgtDogRJX4fj-3NpaM,paramount events,41.88528207675508,-87.67132962771234,1746-1758 w lake st,60612.0,4.7,36.0
1642,ChIJreaOqhMtDogREsyrRF4y8YY,bureau bar and restaurant,41.86490457301147,-87.64598128375087,722 - 724 w maxwell st,60607.0,4.0,85.0
1649,ChIJVdUz88jTD4gRRU4n1n-1QGI,dollop coffee and tea,41.95794014690388,-87.64965205979321,4181 n clarendon ave,60613.0,4.5,391.0
1651,ChIJb1bjYB3KD4gRi3s4z080Zh8,avalon bar & grill,41.97795546524052,-87.84631988834286,5431 n east river rd,60656.0,4.2,65.0
1652,ChIJ3ZAZM9I6DogRDykX7BgY8L4,mcdonald's ,41.70552029655878,-87.7014580422018,10320 s kedzie ave,60655.0,3.4,613.0
1653,ChIJbVlCBpkxDogR-FOtlhhcYzQ,burrito grande perez,41.80085699795718,-87.72959311345366,5108 s archer ave,60632.0,4.3,200.0
1655,ChIJCebOs8LMD4gRhU6dZ2HTt9U,las delicias de puerto rico,41.916815033964035,-87.74705760204893,4821 w armitage ave,60639.0,4.5,661.0
