place_id,place_name,latitude,longitude,address,zip_code
ChIJleWegJHTD4gRsIMGm3IjUcM,yolk test kitchen,41.91358779004821,-87.6822028354253,1767 n milwaukee ave ,60647
ChIJI1dehI0xDogRRkvKIpUspHM,las asadas mexican grill,41.80802515275297,-87.72003743037237,3834 w 47th st ,60632
ChIJBRuLGC_MD4gRfUVkzaQBIZk,la palapita,41.80802515275297,-87.72003743037237,3834 w 47th st ,60632
ChIJ-auSyWItDogRQwUqcwljejE,crazy bird,41.89119348444125,-87.65705497652716,1160 w grand ave ,60642
ChIJIYRFg7IsDogRAW0zLguKL-A,the redhead piano bar,41.893370903547904,-87.62878315259044,16-18 w ontario st ,60654
ChIJTW33Mf8sDogRiUnjYL3R_ck,haisous,41.8579631274509,-87.6533577347641,1800-1802 s carpenter st ,60608
ChIJ5dzicc82DogRAgt6UbqYZO0,harmony restaurant,41.792163848654795,-87.78540566160221,6525 w archer ave ,60638
ChIJKZPKuZzTD4gRdrBluOezgiI,himalayan sherpa kitchen,41.968442053562335,-87.69630357897282,2701 w lawrence ave ,60625
ChIJtYr4-kUvDogRSldaqlz8S0I,maxwell street express,41.7360797687383,-87.65085877776569,1058 w 87th st ,60620
ChIJ3Y3Wx5YxDogR4InextcWNAs,domino's pizza,41.801786842810614,-87.72355455269388,5016 s pulaski rd ,60632
ChIJk6AQeNotDogRSYiKuU0vC50,avli river north,41.89483049188808,-87.63430053853016,700-702 n wells st ,60654
ChIJfyRm5UskDogRm6rm5r8cYR8,tony's steak & lemonade shrimp max fish & chicken,41.735616946080604,-87.66778329790544,1757 w 87th st ,60620
ChIJO7XGtKTSD4gRJFn6EFcbOzw,new china station,41.910205129391386,-87.68770229368916,2411 w north ave ,60647
ChIJVwHOlyi0D4gRNjLVMUoK00A,macaroni grill,42.008536400868735,-87.91442843927048,11601 w touhy ave ,60666
ChIJO_rhitssDogRcLK0gyPMFFU,stelio's bottles & bites,41.881102463653505,-87.65186501694456,19 s morgan st ,60607
ChIJ10rNfwrRD4gRSjnpjnj4iTU,aramark@ loyola simpson  residential,41.99740324090077,-87.65829455130033,6333 n winthrop ave ,60660
ChIJo_4DJAG3D4gRPsUur_-crLQ,mcdonalds,42.008536400868735,-87.91442843927048,11601 w touhy ave ,60666
ChIJ8dmDsngyDogR9fVU3ei4oeQ,apollo's 2000,41.85174848380867,-87.69858330280417,2875 w cermak rd ,60623
ChIJZ5jUr4bSD4gRRWEDncTz1AE,arbor,41.932024920103814,-87.69216904438716,2545 w diversey ave ,60647
ChIJO3DkVAnND4gR6k_9s99ZXlI,el guanaco,41.931959438085926,-87.72223430061649,3802 w diversey ave ,60647
ChIJk8P6YM_ND4gRVbEpbXPtduQ,campesino restaurant,41.968336274546,-87.70878272483317,3207-3209 w lawrence ave ,60625
ChIJAdR9Cr4sDogRBUmDi4xUdqc,taco burrito king,41.87669790361039,-87.63354313948199,405 s wells st ,60607
ChIJT8Iak_8tDogRaLHBn_ysQGU,d'nuez,41.81846434483413,-87.69688003750433,4125 s archer ave ,60632
ChIJ7zvMixjSD4gRmh5s7oloPNk,vegetarian express,41.968330403151455,-87.67902762942835,4747 n damen ave ,60625
ChIJQ0br6L-WD4gRxBPZES-H8io,dairy queen brazer,41.95327478609715,-87.76852367918282,5636 w irving park rd ,60634
ChIJ8W5KpKj0WYgRXlQU3Lknu-c,liberty house cafe llc,41.99551715572943,-87.71283315154741,6253 b n mccormick rd ,60659
ChIJaQvkeWLND4gR7dWuaDjRh5A,cafe mustache,41.92335589370735,-87.69785017026875,2313-2315 n milwaukee ave ,60647
ChIJN1vshn7ND4gRUJtD382NSHA,masa azul,41.93196913588585,-87.70013311819626,2901 w diversey ave ,60647
ChIJ5dZAOAYoDogRr_Y0nk0d7lU,harold's chicken shack ,41.73637382027632,-87.62723156456728,100 w 87th st ,60620
ChIJgfMD36YoDogRW9r8FqP4MDM,captain hooks of dan ryan,41.73603017519755,-87.62909450857559,205 w 87th st ,60620
ChIJk9y3ZiDND4gRqJBU4SN8tOA,frida's pizza corporation,41.9385394320182,-87.7606308007806,5337 w belmont ave ,60641
ChIJT52lfdkvDogRQ3U6t5cF0HE,onesti pizzeria inc,41.76443416454271,-87.69279450732277,2755 w 71st st ,60629
ChIJ53HcncLSD4gRRiSbj06ahKw,cortland's garage,41.915974566321076,-87.66962157196224,1645 w cortland st ,60622
ChIJT52lfdkvDogRQ3U6t5cF0HE,onesti pizzeria,41.76443416454271,-87.69279450732277,2755 w 71st st ,60629
ChIJwWCKPpvSD4gR0yAwOZi2y6E,cherubs 1,41.92497651650807,-87.69116242232869,2524 w fullerton ave ,60647
ChIJmYibGeXND4gR7VFs8DnaBE8,taqueria el dorado ,41.96833532113604,-87.70886984436869,3209 w lawrence ave ,60625
ChIJgda8oQPRD4gRp0clC3sSS8c,andhradarbar,41.997897013484966,-87.68658605962808,2240-2242 w devon ave ,60659
ChIJuSHgkZfSD4gRMhgH9emwC7g,lazo's tacos,41.917676497980096,-87.6872657017977,2003-2011 n western ave ,60647
ChIJo_4DJAG3D4gRPsUur_-crLQ,mcdonald's restaurant,42.008536400868735,-87.91442843927048,11601 w touhy ave ,60666
ChIJpWTWK4vND4gRlZtaoqPlTwM,taqueria las flores,41.975805123578695,-87.7132619526397,3352-3354 w foster ave ,60625
ChIJndCu0MIsDogRuc-ELT_6cw0,chinese yum yum,41.87783134486316,-87.64764834758425,809 w jackson blvd ,60607
ChIJEz7d07_RD4gRaOoi0-qF4cU,bismillah restaurant,41.99778802851346,-87.69280878916278,2510 w devon ave ,60659
ChIJizNZgJ22D4gRWbn0oN4SKGA,tortas frontera,42.008536400868735,-87.91442843927048,11601 w touhy ave ,60666
ChIJiy698YswDogRd7IAS81kOAY,wendy's,41.75466012439375,-87.7413847586052,7601 s cicero ave ,60652
ChIJ0c5uLLbSD4gREt5-41edUc0,mirai sushi,41.90328489854517,-87.6781414560568,2020 w division st ,60622
ChIJmYibGeXND4gR7VFs8DnaBE8,taqueria el dorado,41.968819723568394,-87.6822915036914,2114 w lawrence ave ,60625
ChIJsd4Bvr6vD4gRczYyW5bI0os,big bowl,42.008536400868735,-87.91442843927048,11601 w touhy ave ,60666
ChIJj6gbC42xD4gR9EHXFjqir1w,krispy kreme doughnuts,41.88342263701489,-87.62802165207536,108 n state st ,60602
ChIJL4yMHHLMD4gRgSRCmGIWGLk,ninja,41.95270874578,-87.76713114902138,3944 n central ave ,60634
ChIJdZ8iEtLSD4gRnbo11-QkYXY,mon lung chop suey,41.90000749953961,-87.66725382248163,1009 n ashland ave ,60622
ChIJ__-vAQEtDogRd83F6HhJHtI,twisted tacos,41.87961077820512,-87.62685551466794,24 e adams st ,60603
ChIJE6NfZ67SD4gRjZO9aR-80PM,innjoy,41.90304415750275,-87.67927089988581,2051 w division st ,60622
ChIJx4b-6TTND4gRuFNqWx9ydO8,bonita's restaurant inc,41.91722351626528,-87.73059969166016,4138 w armitage ave ,60639
ChIJ6f9YYqTSD4gR1Al4SlCmveM,subway,41.91039897821153,-87.6902068285586,2512 w north ave ,60647
ChIJqaCAFCMxDogRy6lcGqlGVkA,taco bell ,41.795362472352096,-87.7233692082325,5350 s pulaski rd ,60632
ChIJ5ehT21rRD4gRYMyP4Bd66Qk,chicago taichi bubble tea,42.00558686485114,-87.66107732040031,6800 n sheridan rd ,60626
ChIJpR2V8BXND4gRPy600MzMcyg,el capitan restaurant,41.91733689553147,-87.721449987074,3754-3758 w armitage ave ,60647
ChIJUXzIKpYxDogRnbnEHYZ9W1A,el sombrero,41.80933272861339,-87.72349163256884,4611 s pulaski rd ,60632
ChIJj9qgFCzOD4gRnwbBwXYB2uA,the main pizza,42.01192482773641,-87.70123045712496,2839 w touhy ave ,60645
ChIJAQDAYrUsDogRP4hNEthCzr4,"11 dining, llc",41.871996129912795,-87.63920429168549,801 s canal st ,60607
ChIJrcr26tAsDogR-8GTqB3rpjU,ace hotel chicago,41.88712191392366,-87.65203575962191,311-319 n morgan st ,60607
ChIJXY5CiyctDogR8-v6307huWo,alhambra palace restaurant,41.88432780168576,-87.65845724300314,1240 w randolph st ,60607
ChIJXaUCWbUxDogRncafrBDgra0,palermo's restaurant,41.77863125454842,-87.71742437604965,3751 w 63rd st ,60629
ChIJ4bJirsDOD4gRHBc7Q6VsMvw,city's edge bar & grill,41.997435233866156,-87.76125861652775,5310 w devon ave ,60646
ChIJxW2fRcItDogRH2TeNyK4QDE,kokku llc,41.87791559996099,-87.65621646106639,1140 w jackson blvd ,60607
ChIJo9Vb9iLOD4gR8NIzMkXtE0k,delhi darbar,41.99757606083328,-87.70500110804562,3010 w devon ave ,60659
ChIJ9eemRwgtDogR_EsmnDF1M4E,las carnitas uruapan,41.793570492325294,-87.69440453864611,2813-15 w 55th st ,60632
ChIJk0ZwggrND4gRhLt0yJGJSos,cafe tacuba chicago,41.967983305405404,-87.74177611404262,4507 w lawrence ave ,60630
ChIJQ6cCiIPMD4gR2Q-YfEDHkBk,avenida del sabor,41.931094868682656,-87.7713443827231,5805 w diversey ave ,60639
ChIJ1cFlAp46DogR0uNpub-Lvkg,conte's pizza,41.738117520954034,-87.7216916107363,8512 s pulaski rd ,60652
ChIJ4bCV89jTD4gRb0AoSPNPwQg,rhyme or reason,41.90331444109649,-87.6764167191003,1938-1940 w division st ,60622
ChIJKxRagyzSD4gRI4qY0Rka_Aw,lao sze chuan,41.96995886314596,-87.65984317819886,4832 n broadway ,60640
ChIJdfJsBUDOD4gRLe7ZJKLjYXU,via veneto,41.99647012267009,-87.7175038126524,6340 n lincoln ave ,60659
ChIJ8U0rEmIsDogROcBPM_7xIL4,daebak korean bbq,41.85478377573143,-87.6327328095787,2017 s wells st ,60616
ChIJqQyWfSa0D4gRN_IZ45o_HCE,argo tea,42.008536400868735,-87.91442843927048,11601 w touhy ave ,60666
ChIJiUAZ5xLND4gRBG_Svxpnqz4,raymonds tacos no. 3,41.924694271720426,-87.71859337650946,3638 w fullerton ave ,60647
ChIJz29MdHrND4gR5pq83uUZbVo,longman & eagle,41.930126115324036,-87.70723080718348,2657 n kedzie ave ,60647
ChIJTYZMDiotDogRvZPaS632PK0,jimmy johns,41.89176977820589,-87.65860461424934,520 n ogden ave ,60642
ChIJc-2ARiYtDogR8yFmljemmO0,gyu-kaku restaurant,41.88428889843475,-87.66127941800869,1364 w randolph st ,60607
ChIJ1TxkUvnRD4gRJYJ320Q9KOQ,mekato's colombian bakery,41.980205519802354,-87.6926003777661,5423 n lincoln ave ,60625
ChIJ4bCV89jTD4gRb0AoSPNPwQg,sea & olive,41.90331444109649,-87.6764167191003,1938-1940 w division st ,60622
ChIJS3nLocoxDogRUo8v-9k-9dE,los pekes ice cream & coffee shop,41.778855337866396,-87.71712584709125,3742 w 63rd st ,60629
ChIJaeDsomDND4gRiwTMaTCG1TM,healthcare alternative systems,41.91707339369025,-87.70193043997543,1949 n humboldt blvd ,60647
ChIJbcernpDSD4gRtKDGH8yR2y4,quesadilla la reina del sur inc,41.92271136874486,-87.6874275597316,2235 n western ave ,60647
ChIJJYtx1jAsDogRvjrVCUAgao4,johnny o's,41.830791780461546,-87.65082245322775,3465 s morgan st ,60608
ChIJjy-MvNPTD4gRkuZHiDgtPgo,antojos & shakes,41.90284877198458,-87.69306763647268,2627 w division st ,60622
ChIJcRRjSCm0D4gRxJ7bVvbQtBM,frontera tortas  by rick bayless gate k4 t3,42.008536400868735,-87.91442843927048,11601 w touhy ave ,60666
ChIJdwM9Ir7ID4gR0qNqi9vN3LM,charcoal flame,42.00913302441507,-87.6738463824712,7003 n clark st ,60626
ChIJR6FXtZfSD4gRjJvLCYWO7Vg,floyd's pub,41.917458568356686,-87.6851026411648,1944 n oakley ave ,60647
ChIJSb5z5t4tDogRe8PeMVTvDkA,taco lulu,41.879163618039705,-87.64264995953803,601 w adams st ,60661
ChIJlSSuJNXTD4gR6KO1UEzrdew,"double happiness enterprises, inc.",41.97316839903074,-87.65736357565744,1061 w argyle st ,60640
ChIJCSm5CUYwDogRKiWt4wsX5EM,dunkin donuts/baskin robbins,41.766871449399645,-87.72231683922517,6925 s pulaski rd ,60629
ChIJsT3Fut_RD4gRdgJufFoRRWI,uru-swati,41.99751643797393,-87.69592211008249,2629 w devon ave ,60659
ChIJ78NyRsUsDogR6AqyYoPrts4,au cheval,41.88451545836221,-87.64749730032112,800 w randolph st ,60607
ChIJs1HOuK4FBYgREBfd2sHyGwg,la terraza,41.83938905272788,-87.72427111249546,2839 s pulaski rd ,60623
ChIJLRNSnaEtDogRPvL7_wL6Fwg,bp,41.852071127711035,-87.67556229949928,1955 w cermak rd ,60608
ChIJB0HzSwgtDogRz3cK_3JXy-E,nitecap coffee bar llc,41.85784563395503,-87.67028364184357,1738 w 18th st ,60608
ChIJ_w7sVbHTD4gRYiLj4jA2o-Y,smokey's wing shack,41.90284877198458,-87.69306763647268,2627 w division st ,60622
ChIJF5VonrjSD4gRBgGbmXf3hWU,belly q/urban belly ii,41.88427444889852,-87.6624330256578,1400 w randolph st ,60607
ChIJL4EI15_LD4gRyz0pgTLrVnw,overtime bar and grill,41.938298112741435,-87.79390970721451,6714-6718 w belmont ave ,60634
ChIJY67C8EfLD4gRTZuqwPeFNRw,cafe hoang,41.90912535950115,-87.79562029285854,6818 w north ave ,60707
ChIJdeaorlMtDogRgPr-G3W_Lho,jerky jerk rare,41.86890766821779,-87.683275390726,2251-2253 w taylor st ,60612
ChIJh_oVv0QtDogRlRO5mTl-LuY,popeyes famous fried chicken,41.88263293865735,-87.686621829305,50 n western ave ,60612
ChIJuSHgkZfSD4gRMhgH9emwC7g,little lazo's,41.917531659094365,-87.68726210292009,1961 n western ave ,60647
ChIJ__8739HSD4gRuKgGEgcnPvM,mariscos la costa,41.902539299640786,-87.66761746288637,1132 n ashland ave ,60622
ChIJ04emFn7ND4gRJ_2kvIAhixQ,international house of pancakes,41.93219923769267,-87.69851035446804,2818 w diversey ave ,60647
ChIJTxSyOsfSD4gRUy8JoHTgkVw,piece out,41.91039968165606,-87.67601118847784,1923 w north ave ,60622
ChIJVR42WNksDogRntizbJVxpME,crosstown fitness,41.88157047910092,-87.65332321194828,1031 w madison st ,60607
ChIJgVZJntAsDogRGymcVEr0ypI,gaijin japanese restaurant,41.885700767664,-87.65176311854694,950 w lake st ,60607
ChIJUd2L8trND4gRJZ9gTYiBhIQ,los asadores mexican grill,41.97582181741593,-87.71172940864521,3312 w foster ave ,60625
ChIJY4TVKFQkDogR4mjVqRDBbLU,"home of the hoagy,inc",41.69231135890114,-87.6552682468684,1316 w 111th st ,60643
ChIJVfsb7Rg7DogRoZ5xFCSrzg4,firewater saloon mount greenwood,41.691406189233774,-87.71830607808162,3908 w 111th st ,60655
ChIJE20SeJDND4gRRxLzMpy7uI4,subway restaurant,41.93192146498925,-87.7077419067256,3207 w diversey ave ,60647
ChIJfWmJOsfSD4gRVMPC4R4Q10w,piece,41.910397185945115,-87.6761810963592,1927 w north ave ,60622
ChIJi9juTI7JD4gRAH89Tqt81iA,kung fu wok restaurant,41.99496878030707,-87.78543707203039,6249 n milwaukee ave ,60646
ChIJu1U9qsnSD4gRu1jZ4n1kTNY,red square,41.90333103206356,-87.67543391800302,1914-1916 w division st ,60622
ChIJ7ThroxstDogRcgnRTuaTCrQ,golden thai,41.86918475349806,-87.66450967311361,1509 w taylor st ,60607
ChIJwxSm6J4yDogRfdNjdyC2u9o,maxwell street sacramento,41.87370411501883,-87.70086461713747,601 s sacramento blvd ,60612
ChIJibzc3rYtDogRNFEVMQCu1vE,jason wok,41.86878383901945,-87.68624468790968,1014 s western ave ,60612
ChIJAfy1G37ND4gRTridzOuEXzw,popeyes,41.93220539506453,-87.69767924386909,2800 w diversey ave ,60647
ChIJ5_FPg4_RD4gRYqCP-6QJtMQ,tanoshi sushi mikes,41.98309881120602,-87.66852394399494,5547 n clark st ,60640
ChIJI06KKzUtDogRNqs5Ha0G54w,roots handmade pizza,41.896044909585854,-87.67560484584318,1922-1924 w chicago ave ,60622
ChIJVaF9pRstDogRs-PzIlSi4Rs,jubranos,41.86917813329072,-87.66490728096329,1519 w taylor st ,60607
ChIJne25kwjND4gRatqWgG8TDqM,starbucks coffee ,41.967671015100265,-87.76759623699381,5601 w lawrence ave ,60630
ChIJOQgJucbSD4gRgVXXEp8csFw,las palmas,41.91042962586729,-87.67394168112114,1835 w north ave ,60622
ChIJ16xtFdLND4gRGpN0OOoZCxM,"ssyal ginseng house, inc",41.96807525591039,-87.73302714630069,4201 w lawrence ave ,60630
ChIJo6S8k4LRD4gRdaIrevdrc_Y,blowfish contemporary sushi,41.98352603576393,-87.65931794356672,1131 w bryn mawr ave ,60660
ChIJyRS8tTrTD4gRtrGH7OKHXSc,danang kitchen,41.97319036182206,-87.65575295517391,1019 1/2 w argyle st ,60640
ChIJ4xXTeZfSD4gR6QeZRvAMOkc,birrieria estilo jalisco inc.,41.922472275724004,-87.68771380635988,2230 n western ave ,60647
ChIJvzCdHhbMD4gR376DHc_Jr-I,the windsor,41.96315881688357,-87.75684243172473,4530 n milwaukee ave ,60630
ChIJpVx_DzjMD4gRvFIQLcx5gVI,i.h.o.p.,41.95742941661818,-87.74757441604942,4210 n cicero ave ,60641
ChIJHzZbocg0DogRCXhCAB0ZcGM,cooper's,41.93992587298261,-87.66025188109599,1232 w belmont ave ,60657
ChIJq6q6wLjSD4gROoqWFKpgB6Q,angry pig tavern,41.91034561901541,-87.67906657744264,2039-2041 w north ave ,60647
ChIJBek4rsDSD4gRl_vkgCbqDnU,northside bar and grill,41.91151626874878,-87.67734069528593,1635-1637 n damen ave ,60647
ChIJFRe8FPstDogRDmWvccThc-U,mcdonald's ,41.823158345079044,-87.68923664723573,3867 s archer ave ,60632
ChIJWU5qmL3SD4gRCQYHHxYtp7E,silom12,41.91490097692986,-87.6846674276531,1846-1848 n milwaukee ave ,60647
ChIJRSn-ONe1D4gRai9JNZj47wM,gold coast dogs,42.008536400868735,-87.91442843927048,11601 w touhy ave ,60666
ChIJRUPK8-_ND4gRVwrTsYcYnqQ,salam  restaurant,41.96571901742301,-87.70853756167853,4634-4636 n kedzie ave ,60625
ChIJg66fHCe0D4gR44TuxP8UWCY,united club,42.008536400868735,-87.91442843927048,11601 w touhy ave ,60666
ChIJF2f7353RD4gR6irbDQFlnqM,china palace,41.98992502738334,-87.65943957792769,1129 w thorndale ave ,60660
ChIJL04Mzo21D4gR0Bx9ReEm2eM,host international inc-goose island t3,42.008536400868735,-87.91442843927048,11601 w touhy ave ,60666
ChIJLRbpVM7SD4gRGbrDwLRHcrQ,bangers & lace,41.903410014986854,-87.67029621760885,1670 w division st ,60622
ChIJKXQZpXrLD4gRsc9IPF_36LY,ming brickyard super china buffet inc.,41.92884722332376,-87.7857810192012,2650 n narragansett ave ,60639
ChIJe44dX3AtDogRubIB3j62c8s,burger king ,41.864646729615934,-87.68600251219546,2401-2407 w ogden ave ,60608
ChIJMUPhAPoxDogReOLexgb0KeY,frank's chicago shrimp house,41.812181052065476,-87.70712481334274,4459 s archer ave ,60632
ChIJ1zhOMHIuDogRyB8Aw1tcowI,la cecina restaurant,41.808630431592775,-87.67361893018992,1934 w 47th st ,60609
ChIJvxctudAxDogRsjjV5X5VXFA,betty's icecream,41.78684434610169,-87.70350999751714,5840 s kedzie ave ,60629
ChIJB5GjFaTTD4gRHD9V-8hB0-A,vanille pattisserie,41.94129418083914,-87.64429200618662,3243 n broadway ,60657
ChIJ-aKXPgzTD4gRLor4Q1tfvr8,cafe vienna,41.92848737421647,-87.64204435669477,2523 n clark st ,60614
ChIJj74yhxTTD4gRBdgIqda58zg,gemini bistro,41.920057536694095,-87.64101934425842,2075 n lincoln ave ,60614
ChIJBZiqlknLD4gRvgytA49w_Fo,fannie schmoe's bakery llc.,41.954142628314095,-87.74875050321968,4042 n milwaukee ave ,60641
ChIJaRl6eNgsDogRf8lujStctCQ,lou malnati's pizzeria,41.884113576693956,-87.6580816735995,1235 w randolph st ,60607
ChIJTcDpnlHSD4gRZOaxJicTdjo,tuco & blondie,41.94330695630928,-87.66406138245193,3356-3358 n southport ave ,60657
ChIJ-Ufji7zLD4gRonqmEoMu9sk,anthony's diner,41.945225909077436,-87.81607437620299,7544 w addison st ,60634
ChIJudKeYtIsDogRfWhiR7GzovE,galleria marchetti,41.89324923448882,-87.64879205703045,825 w erie st ,60642
ChIJfXWIMNnSD4gRS7RwZCotnlQ,stanley's grill,41.9102628778286,-87.66170856673064,1543 n elston ave ,60622
ChIJRx_TgsAvDogRJjpEo7lUKeQ,taqueria mi pueblo,41.80100543752876,-87.68661612013952,2459 w 51st st ,60632
ChIJfY9dm8U2DogRYoSruwpQoTg,the shrimp shack,41.79213894220009,-87.78674847587374,6601 w archer ave ,60638
ChIJEQ9xRhDTD4gRp1djRjjsB8I,johnny's beef & gyros,41.92362446590992,-87.64642729029045,2300 n lincoln ave ,60614
ChIJ2ypthVYTDogRgTsL-BiW9Sc,chew on  this,41.945225909077436,-87.81607437620299,7544 w addison st ,60634
ChIJLwehLqovDogR-Nn3Z5VJJNY,chefshaun's hunger hideout,41.74987081545715,-87.68680008233818,2539 w 79th st ,60652
ChIJWyc4-ozND4gRYGmcEotDMis,tano's pizzeria,41.954050096788976,-87.70472907257313,3038 w irving park rd ,60618
ChIJO7epIgzTD4gRZBrmnpnHXKQ,aloha grill hawaiian bbq inc.,41.92868791566252,-87.6424846713895,2534 n clark st ,60614
ChIJFXchGjxt_oYR3OZ7Dv4sz3A,neveria y fruteria mi linda michoacana,41.786530774401776,-87.69277691398389,2740 w 59th st ,60629
ChIJmQvfksvTD4gRafdwOI7HfhY,pizza-metro,41.90319053056459,-87.67029008677444,1707 w division st ,60622
ChIJa6l3MhjTD4gR7_dFRCJ_Et4,raw bar & grill,41.94953364110841,-87.65856122309641,3718-3720 n clark st ,60613
ChIJ9yFCWILRD4gRSedorYiAK2M,pasteur of chicago,41.982514139614246,-87.65989035282759,5523-5525 n broadway ,60640
ChIJ8yetOQXTD4gRHp_6Nm83kg0,qdoba mexican eats ,41.932531176231386,-87.65370947965263,957 w diversey pkwy ,60614
ChIJEzgABtHRD4gRPzEAQTC33FI,bina's cafe,42.00853953880007,-87.69050051086754,2407 w lunt ave ,60645
ChIJ4QZeuxvMD4gRyscApg13-OQ,mcdonald's,41.9706775856096,-87.76342894418006,4946 n milwaukee ave ,60630
ChIJgTgrrPrMD4gR2_8oNRNQyzA,restaurante y tamaleria la bendicion inc,41.92809931574407,-87.74630655430202,2567 n cicero ave ,60639
ChIJWQwINsQtDogRQvFqTEb7llc,siri indian restaurant,41.86939628798951,-87.66499334444555,1520 w taylor st ,60607
ChIJ8b4wTs7SD4gR_Qgol2aC7bU,5411 empanadas,41.90319824225925,-87.66979533648626,1659 w division st ,60622
ChIJVR_s6bLTD4gRE48xLsrwvIM,cubby bear lounge ltd,41.947085343828114,-87.65663783493278,1059-1065 w addison st ,60613
ChIJ2TzjVki8QIYR8rBeeXUQuGA,dona chela restaurant,41.850399240651626,-87.68057158857073,2158 w 23rd st ,60608
ChIJgQw0jYvRD4gRXORjbUrNq4s,paulines,41.92512768539323,-87.66204067083223,1337 w fullerton ave ,60614
ChIJYZ60zNgwDogRQSZMiebQQI4,the chg bear sports bar/grill,41.777047434817106,-87.76153944156653,6335 s central ave ,60638
ChIJDYXmz7AxDogRjKJsnQHJPNY,nova pizza,41.78629925284164,-87.72282652764042,5849 s pulaski rd ,60629
ChIJ0ZFty-EsDogRHoKLStDzB8E,jade court chinese restaurant,41.87352003005835,-87.65696051450144,624-628 s racine ave ,60607
ChIJRYk3wpUtDogR4v7HM1rs_qc,jackie's mexican cuisine,41.83598843774932,-87.64608160187807,3207 s halsted st ,60608
ChIJv2NPdZbSD4gRouXPbrFYvHo,antico,41.917557317725546,-87.68266439539492,1946 n leavitt st ,60647
ChIJmTyEUSDOD4gRl0ZxMKK6Cjo,mr. falafel,41.9977637602161,-87.6997957219191,6404 n california ave ,60645
ChIJeXTItBvMD4gRJ4hG5yqifss,gale street inn,41.970011678252355,-87.76279618588528,4914 n milwaukee ave ,60630
ChIJIVrbHPjMD4gRQfUHdZXic5U,estrella blanca,41.93666807129704,-87.74665459887675,3049 n cicero ave ,60641
ChIJ_bSNqsTSD4gRiY1MNGnZ4vQ,tarboush mediterranean grill,41.9107340942111,-87.66809336341993,1608 w north ave ,60622
ChIJUdv_MmPRD4gR8WVDtktNIgc,yinkres nigerian restaurant,42.00853953880007,-87.69050051086754,2407 w lunt ave ,60645
ChIJf4UCjadCGYgRPk63PEDsfwo,"compass group usa, inc",41.842995989592936,-87.69530930572088,2650 s california ave ,60608
ChIJp3INTqYlDogRhd2yf71gnVI,uncle joes jerk chicken,41.73603017519755,-87.62909450857559,205 w 87th st ,60620
ChIJTVmt6vPMD4gRLDG3F5Tljq4,zacatecas restaurant,41.93133655338099,-87.75299705381228,5037-5039 w diversey ave ,60639
ChIJ4Su6VogtDogRm8DQolCed28,popeye's chicken,41.8447339386662,-87.6953630667087,2556 s california ave ,60608
ChIJcWh97kfJD4gR9zRthArTV6A,superdawg drive-in inc,41.99660885982106,-87.78699944881153,6363 n milwaukee ave ,60646
ChIJD8OBkdcsDogRxVk2nPDC6-g,pizzeria del mercato,41.88678769586561,-87.65669394874121,1154 w fulton market ,60607
ChIJVSqYBt3RD4gRYGhqSbNd4II,khan bbq restaurant,41.997618688841094,-87.6899394819467,2401-2405 w devon ave ,60659
ChIJeym-q3EtDogRPbhJ8DgEfOk,ballast point brewing company,41.886083491794274,-87.6488012338551,212 n green st ,60607
ChIJOxXGyFAtDogR7u-PLnGpdPM,lao peng you llc,41.89600469987965,-87.6779378973854,2020 w chicago ,60622
ChIJ5Rvh3VLSD4gR-ctsHolPXjs,two hearted queen,41.945503653310645,-87.64957851411022,3500 n halsted st ,60657
ChIJs80S9bklDogR4mTfbmcb9gs,jamaican gates,41.80189905551875,-87.62210882249303,111 e 51st st ,60615
ChIJuZtDXFHTD4gRXbUgtM91NIc,levy premium food service limited partnership,41.88124145680335,-87.6742825339533,1901 w madison st ,60612
ChIJ3b--t57SD4gRPhcckb2w6wg,taqueria los comales ,41.920182838435146,-87.69313904053791,2148 n milwaukee ave ,60647
ChIJiUY-tMcsDogR2tYKEYjRn5g,blue spot sushi corp.,41.88418750712781,-87.64111966683218,131 n clinton st ,60661
ChIJB6snzv3MD4gROatXkRBx7LA,martha's grill,41.93152198835163,-87.73910663902876,4457 w diversey ave ,60639
ChIJuZtDXFHTD4gRXbUgtM91NIc,levy premium foodservice limited partnership,41.88124145680335,-87.6742825339533,1901 w madison st ,60612
ChIJJ1U7SsYsDogR52EkVJFBDzI,le pain quotidien,41.88431283109331,-87.64112326659475,135 n clinton ,60661
ChIJJ5i7xP8sDogRZHQ5geS87d8,dusek's board and beer / punch house,41.857827847989796,-87.65741657223244,1223-1227 w 18th st ,60608
ChIJSTxnvclIQIgR_ZCIncsrd5E,jupiter coffee,41.88657732519364,-87.65599106599095,1139 w fulton market ,60607
ChIJP8PLLfLSD4gRzo2BPk1tiQg,taco  bell ,41.92866902058592,-87.67377920462141,2575 n clybourn ave ,60614
ChIJIZeRiaIsDogRwH1eY2uKRio,beezee,41.87635126679324,-87.62618919572563,424 s wabash ave ,60605
ChIJgeJXTN9KbDkRCS7yDDrG4Qw,jaipur,41.88426636711743,-87.64927146811964,847 w randolph st ,60607
ChIJMxmsexItDogRAC6u3uKK1FY,illinois center for rehabilitation and education-r,41.86687083903885,-87.6758133783677,1950 w roosevelt rd ,60608
ChIJDdJ9yqjTD4gR8hwIA_w6Dlc,poke poke,41.94008901097665,-87.6493912545656,802 w belmont ave ,60657
ChIJbcMZWHT3DogRxF6nDoMXQsg,"lido, inc.",41.98174513647886,-87.7734651611067,5504 n milwaukee ave ,60630
ChIJwcMQoK_TD4gRA_2Hx7qSuu4,nookies tree ltd,41.94281448841558,-87.64950812514198,3334 n halsted st ,60657
ChIJm1MK2rotDogRUDJC6QVaPMA,harold's chicken ,41.862678912114326,-87.62419160244413,1450 s michigan ave ,60605
ChIJMaqNJk3JD4gRwSJqUJRv2-o,"smaktak, inc.",41.98972279032093,-87.77717307629189,5961 n elston ave ,60646
ChIJ3V69u7fTD4gRV3EyfyXDnmY,windy city gyros,41.953715918659405,-87.65014628741659,3932 n broadway ,60613
ChIJnehl07nND4gROaw-ONd2Eb8,independence tap,41.95377450976464,-87.7264587067583,3932-3934 w irving park rd ,60618
ChIJocxdT6osDogRDhLvXIwloUY,halsted street deli,41.892274965646884,-87.62009879454878,541 n fairbanks ct ,60611
ChIJyaEwrW8tDogRxoGYX687qvE,lou malnati's,41.8898747912625,-87.62425976144405,410 n michigan ave ,60611
ChIJY473WcbSD4gRUo5DhCPezNs,the worm hole,41.90837835089753,-87.67456920778488,1462 n milwaukee ave ,60642
ChIJf7wA2gHTD4gRdVIS7dWafkk,sarpino's pizzeria,41.9324618093209,-87.65783274822834,1149 w diversey pkwy ,60614
ChIJ1wfVjqgtDogRG4qUJkqHKkg,shu tin xia,41.848386251232185,-87.64196007758322,2428-2436 s wallace st ,60616
ChIJs2Tl_BzTD4gRJmzetdts-vQ,cafe bonne sante,41.92230468172915,-87.64850216798372,2215 n halsted st ,60614
ChIJ908aKunTD4gRGsTOB-Hmm2Q,etta,41.910645574433396,-87.67420058686103,1840-1842 w north ave ,60622
ChIJXyqg9e_PD4gRVSt9Npl1D0U,shinwari grill,41.9975929860972,-87.7040346324575,2948-2950 w devon ave ,60659
ChIJjZgBcSe0D4gR3SY0WFbtMY8,ice bar,42.008536400868735,-87.91442843927048,11601 w touhy ave ,60666
ChIJW2yhfrcsDogRrYdNzjhUh8Q,blackwood bbq,41.94002651682731,-87.65388932385706,962 w belmont ave ,60657
ChIJVVAbbHbwqIkR3JfaN5abZAA,emerald isle,42.0023773668331,-87.81574842158678,6684-6686 n northwest hwy ,60631
ChIJq8XcsKjTD4gR3gpb-WSH15c,peking chinese food,41.939814005246774,-87.64911458899103,3167 n halsted st ,60657
ChIJMR4gVczND4gRuurOLOAqYfg,ay  ay picante,41.964007753721255,-87.73395032409564,4569 n elston ave ,60630
ChIJy1w-FtosDogRKGBXuEUhF1g,sweetgreen,41.88443496492766,-87.65216554670809,1000 w randolph st ,60607
ChIJuZYRJ8DSD4gRdJuh5-8ngjg,lottie's pub,41.915854880451626,-87.6762179092616,1925 w cortland st ,60622
ChIJZz5jkKktDogRQeSMqQ6QH4w,fran's beef,41.854572220124695,-87.66378596101777,2021 s blue island ave ,60608
ChIJw_oVr4rRD4gRbulwmWXgt10,china kitchen,41.97594611753842,-87.67772574573549,1931 w foster ave ,60640
ChIJqe6FYjMxDogRoGm9jPJPl4k,"three sons restaurant, inc.",41.79394204830804,-87.77463321494591,6200 s archer ave ,60638
ChIJnUaZB9TTD4gROAfpZdmSe60,soul crab chicago,41.91593071729015,-87.68751557795046,1904 n western ave ,60647
ChIJe1J34mswDogRF2fh-2t7tzo,white castle ,41.749014401931134,-87.72204098184092,7912 s pulaski rd ,60652
ChIJ0TXxlQPSD4gRf2WWPKa-Azs,groundswell coffee roasters,41.97209297588227,-87.6909582633662,5008 n lincoln ave ,60625
ChIJw0cVUdHSD4gRZADPW6blGZY,the frontier,41.90128364339324,-87.66348362488466,1072 n milwaukee ave ,60642
ChIJGxK-0agtDogRLlXtAIrRv3I,manjares al express,41.8513977997122,-87.66616621226515,2226-2230 s ashland ave ,60608
ChIJr1YcKwHJD4gRBv50YlI4Yz4,lotus garden,42.01177151609754,-87.80880368336393,7254 w touhy ave ,60631
ChIJJQQzGSvSD4gR1cgLInIH5yQ,le's pho,41.9722135569909,-87.65960910010729,4925 n broadway ,60640
ChIJi4LnEbfND4gRKaCUdngM8AE,shokran,41.95353192936301,-87.72833818191091,4027 w irving park rd ,60641
ChIJAbN-ArIsDogRqx7ytXesgCc,rockit  burger bar,41.949010883298726,-87.65814287476812,3700 n clark st ,60613
ChIJm8Yhi63TD4gRwbyjIB4HrSY,cozy noodles & rice,41.945108104331005,-87.65441181641037,3456 n sheffield ave ,60657
ChIJpdW-ZMI2DogRRaJJ0vbA1V8,taco bell ,41.79218559796885,-87.79580846844715,6944 s archer ave ,60638
ChIJkX7tdbcsDogRQTIKcLB1zSI,aramark nuveen investments cafe,41.88602541254113,-87.63629770323044,333 w wacker dr ,60606
ChIJYYqxZLosDogR7gK7KPdEe1s,new orleans kitchen,41.88458626715457,-87.63101044588598,100 w randolph st ,60601
ChIJ8XY-_q7SD4gRPhPxSpfZ8b4,kitchfix,41.948894492280026,-87.65681760203104,1101 w waveland ave ,60613
ChIJ67wqZ6rSD4gRvzHdAHx0GKU,cafe marie-jeanne,41.899330918472295,-87.69664492473737,1001 n california ave ,60622
ChIJjTP5T6ssDogRy1Amgz169Qo,corner bakery cafe,41.89485296136011,-87.62290180042824,676 n st clair st ,60611
ChIJKZXy7qjND4gRtjQr2AVcREk,kindred chicago-central hospital,41.94008298285754,-87.72954609719963,4058 w melrose st ,60641
ChIJw1-fSqfJD4gRYHM1gS9lMCY,nonno pino,42.00310350668988,-87.81689425591499,6718 n northwest hwy ,60631
ChIJG2HDPTzSD4gRY7ilnUV-GfE,margies candies,41.961400692264384,-87.67498750263746,1813 w montrose ave ,60613
ChIJ6Tc_KbExDogRjEKWCVCX3ps,zacatacos,41.78507649032044,-87.72279064865629,5925 s pulaski rd ,60629
ChIJDT8iySLOD4gRNOgUVaefzis,new taza bakery,41.997539893342406,-87.70700596180559,3100 w devon ave ,60659
ChIJ75qBNLPTD4gRUkVuyBldeBw,bernie's,41.948843780887984,-87.65800926199522,3664 n clark st ,60613
ChIJRQvV4bMxDogR8pIlCLVaJSQ,mariscos la palma,41.782967133217156,-87.72302765304838,6038-6040 s pulaski rd ,60629
ChIJb8hNsw3TD4gR0QhIJbra9BY,kabuki restaurant,41.927477726852224,-87.64144977590252,2473 n clark st ,60614
ChIJg5a1l9AsDogRxwZw028T0kI,roister,41.88663405402807,-87.65184962977254,951 w fulton market ,60607
ChIJuTFvEtvND4gR87o4mY1X-s4,taqueria san juanito,41.96711477143258,-87.70857709253174,4714 n kedzie ave ,60625
ChIJq5wKXXnND4gRPjLPuGUGJzY,cellar door provisions,41.93194409993535,-87.70360323628219,3025 w diversey ave ,60647
ChIJscPd1Fy2D4gRa0X-5fXRCvI,american airlines,42.008536400868735,-87.91442843927048,11601 w touhy ave ,60666
ChIJ9RJTKaYsDogRr12ehpa_2KU,market thyme,41.8846320757672,-87.62224799108877,200 e randolph st ,60601
ChIJl8W__OctDogR6aQfmxuGM3Q,the darling,41.88425670381661,-87.64982670264364,901-905 w randolph st ,60607
ChIJG3SRVArMD4gRpCoxMBRie0k,pete's pizzeria,41.960284231502094,-87.77396125248596,5845-5849 w montrose ave ,60634
ChIJPR-VuTYxDogRYqq5cHgVknw,flamingo cafe,41.79456474995328,-87.76914449095,6069-6073 s archer ave ,60638
ChIJV_7DGTjLD4gR1LjfpgYFDkU,nick jr.'s grill,41.90910578560825,-87.7970900667382,6856 w north ave ,60707
ChIJscE8yNAsDogR5bdhEY-wBwA,swift & sons,41.886848295491134,-87.65223416110462,1000 w fulton market ,60607
ChIJWaFfwZ0tDogRhIJnI2RQI0U,roti modern mediterranean,41.88442576290219,-87.65268988514183,1012 w randolph st ,60607
ChIJ0fvJGqssDogR3mnbePi4NbI,epic burger,41.89326297731564,-87.6219587764921,227 e ontario st ,60611
ChIJ0QK7SW3RD4gR1XWCLTjfW08,gadabout,41.9765926405371,-87.66855724217827,5212-5214 n clark st ,60640
ChIJi2nLFNAsDogRNE9e36pfREA,kuma's corner,41.886878841282865,-87.64969725329456,854-856 w fulton market ,60607
ChIJozJmzyDMD4gR64gnNo5usMk,"mother cluckers, llc",41.97525809526954,-87.75199055715778,5200 n elston ave ,60630
ChIJ3aVOQKQsDogR7C6gmWwrVtY,shake shack,41.87820739827345,-87.63572044703741,316 w jackson blvd ,60606
ChIJsaihlC3MD4gRz8GrmTgpu8U,sanos pizzeria,41.967994241870855,-87.74064316006319,4469 w lawrence ave ,60630
ChIJKRH5t9rSD4gRCcziAsL8HuI,mott st.,41.90703874954132,-87.66744407587532,1401 n ashland ave ,60622
ChIJ0xSA2PirD4gRD5NnlxukoSI,taj mahal,41.869401584495904,-87.66467525709314,1512 w taylor st ,60607
ChIJK4FOOKstDogR3l3YVO_M-FM,dunkin donuts,41.85255524909848,-87.65941106191202,1316 w cermak rd ,60608
ChIJM_1zjXe2D4gRDAmIxvGytuw,chili's t - 3,42.008536400868735,-87.91442843927048,11601 w touhy ave ,60666
ChIJP0YWfrcsDogRTh0brtotBEI,habanero baja grill,41.8852892005056,-87.63554688963875,178 n franklin st ,60606
ChIJf_YDL8fSD4gRtIKPRCd_Nvc,cooking fools llc,41.910622805831906,-87.67576194185493,1916 w north ave ,60622
ChIJxc0GZxMtDogRPbscKIiHCcw,the dalcy,41.88688930565886,-87.64882279182802,302 n green st fl 3,60607
ChIJ9T_qZQXTD4gRQxNkucYLObk,"noodles in the pot, inc",41.92690699536436,-87.64866510422102,2453 n halsted st ,60614
ChIJ85MGSbzRD4gRJ5ggx3eKYEc,assyrian american association,41.99817263576234,-87.67142114364609,1618 w devon ave ,60660
ChIJ3bn7fYjRD4gRPsE-ZmwLCEc,reza's andersonville,41.97784289507301,-87.66820740032976,5255-5259 n clark st ,60640
ChIJG00IZQXLD4gRGPB71TCQC60,sorrento's pizzeria & cucina,41.93030153313704,-87.80632767489487,2743 n harlem ave ,60707
ChIJ24T5DWU0DogRFEgyHIEyokI,pulqueria chicago,41.80513932623477,-87.74324247619779,4820 s cicero ave ,60638
ChIJff1RZia0D4gRpybdLfYxHLI,delta sky club,42.008536400868735,-87.91442843927048,11601 w touhy ave ,60666
ChIJ7YvexnAxDogRHNCUc63MURQ,"gelatina's cris restaurant, inc.",41.80685498334125,-87.74298396841671,4725 s cicero ave ,60632
ChIJ46Gmw0_TD4gRu8bdsy0jK1A,coconutz,41.903822360844906,-87.62924444589264,13 w division st ,60610
ChIJD2bn-sAsDogRXOWifxnrhsY,greyhound lines inc,41.874463423738476,-87.643815926751,630 w harrison st ,60607
ChIJmRXesZ8xDogRVESoQvZ0IRk,red barrel,41.80000296677763,-87.73516926865645,5214-5220 s archer ave ,60632
ChIJC2bfEHExDogROhMJO-4O7VQ,mayahuel restaurant & pulqueria,41.80513932623477,-87.74324247619779,4820 s cicero ave ,60638
ChIJn8Dc_HAtDogRTZPnqJf83r0,just salad,41.8880742810662,-87.6349552029274,222 w merchandise mart plz ,60654
ChIJKXutPia0D4gR9i4W1fUBWQI,chili's- g concourse,42.008536400868735,-87.91442843927048,11601 w touhy ave ,60666
ChIJlSBqtmIlDogRsuiJwJZ-gFs,"jamison's soul food, llc",41.73583389580895,-87.66798786362106,1800 w 87th st ,60620
ChIJt59i7hXOD4gRqs2v9c5wyXo,little quiapo restaurant,41.99563177556418,-87.71270678169131,6259 n mccormick rd ,60659
ChIJOdNZ7dsxDogRE6Cj90imxGs,core juice bar,41.79178653965037,-87.70365422787455,5558 s kedzie ave ,60629
ChIJg66fHCe0D4gR44TuxP8UWCY,united airlines club,42.008536400868735,-87.91442843927048,11601 w touhy ave ,60666
ChIJq6dotyfMD4gR5EgmUy_EPec,el pueblito mexican grill,41.97504399270978,-87.74813331935255,5152 n cicero ave ,60630
ChIJA4BSDU7SD4gRNxKTxbp7k-g,butcher's tap,41.946831640926156,-87.6638619981349,3553 n southport ave ,60657
ChIJJSiZHjvTD4gRRlVC7mla7Bk,arclight cinemas,41.908560135368425,-87.64645268572521,1500 n clybourn ave ,60610
ChIJIVSzXFUtDogR3o1e-VabLIM,feed,41.89554365079729,-87.69684454390776,2803 w chicago ave ,60622
ChIJ34L_kuosDogRODW49JEHGaY,holiday inn suites,41.87451215422576,-87.63986470914409,506 w harrison st ,60607
ChIJr_7aUsHND4gRcWAO9wt_arg,ruby's fast food corp.,41.961128198025385,-87.72216036908962,3740 w montrose ave ,60618
ChIJXRa5wrDLD4gR5eA9nZ7Bm-g,"falafel dream, inc.",41.95225488946834,-87.80739690900612,3950 n harlem ave ,60634
ChIJiQRRTUi1D4gRTNco91Np2xc,fire subs,42.00913302441507,-87.6738463824712,7003 n clark st ,60626
ChIJiaODD5EtDogRMD2u1Sn_YVY,ramen-san,41.886282116841286,-87.64851477973816,219 n green st ,60607
ChIJEbp7HlkvDogR3zMuEdH3hHQ,studio movie grill,41.736217960782156,-87.62931043653778,210 w 87th st ,60620
ChIJocgPPdAsDogRw7G2LZnxz-I,beatrix,41.88689053177296,-87.64882281750185,834-842 w fulton market ,60607
ChIJr7tVsU7SD4gRy0XP2JcD17s,venus dinner - theater,41.95007593145458,-87.6639532586899,3741 n southport ave ,60613
ChIJUdGNdWgtDogRwtL_qZSyqTE,jiao,41.88162516725497,-87.62634607877138,18 s wabash ,60603
ChIJeeHLHN3ND4gRCmZiXB9NpBc,taqueria siglo xx,41.968445246044006,-87.71941657581397,3626 1/2 w lawrence ,60625
ChIJg1wI--XMD4gRXWk-1MSDs5o,rolando taco's,41.923102855621096,-87.74641732066216,2322 n cicero ave ,60639
ChIJE6-Ei_ZKDogRjW3LSGLCQ5s,m a m group llc,41.915727954576056,-87.6870786651309,1889-1891 n winnebago ave ,60647
ChIJAzDRHrDTD4gRYkqp90VFk-g,little jim's,41.94550975342797,-87.64928456978338,3501-3505 n halsted st ,60657
ChIJKRgL-2LND4gREIkwgomHgnk,radler logan square,41.924482563171615,-87.6996928656208,2375-2377 n milwaukee ave ,60647
ChIJubaaFI8tEYgRE1ZrjnXYhrw,wings fly,41.75148901882857,-87.57663364715819,1945 e 79th st ,60649
ChIJ24T5DWU0DogRFEgyHIEyokI,la pulqueria,41.84649965688463,-87.68534069617044,2501 s western ave ,60608
ChIJufxarFksDogRmZafmauuI5E,del toro,41.85323373038085,-87.64636414528013,2133-2139 s halsted st ,60608
ChIJXbfLFF0zDogR07X7OUnpcfw,corner shop 1,41.968115020663454,-87.7295540103715,4037 w lawrence ave ,60630
ChIJG8Y1h5AtDogRFgYS87hogZc,el cantante,41.84649965688463,-87.68534069617044,2501 s western ave ,60608
ChIJxbggpz8tDogRP4lg6XiOpQg,woodwind,41.89408538066317,-87.62040431002174,259 e erie st ,60611
ChIJKafaHdAsDogRLfmNPT6NdR8,ramen takeya,41.88668123471305,-87.64835209199198,819 w fulton ,60607
ChIJR07tq5gtDogR5uqv-DJHCSM,martin's corner,41.8513412126996,-87.67814936266365,2058 w 22nd pl ,60608
ChIJKRgL-2LND4gREIkwgomHgnk,the radler,41.924482563171615,-87.6996928656208,2375-2377 n milwaukee ave ,60647
ChIJzb1ji6rTD4gRDoO5dFfkk6A,"ella's bbq, inc.",41.9180886243431,-87.64708314797943,723 w armitage ave ,60614
ChIJIWElF5ssDogRnT3UvgoYRv8,pride of chicago,41.86683145443883,-87.62566960895664,1221-1223 s wabash ave ,60605
ChIJf0tYgJfND4gRpZr00lVb1qI,maribella's italian cuisine + bar,41.946639592877055,-87.71494918308186,3454 w addison st ,60618
ChIJt7VOMGvTD4gR0lnjO9RCBhk,saimai thai,41.91844708184753,-87.63792342122498,338 w armitage ave ,60614
ChIJXTWLI0wyDogRIVcdqyfttJ8,mcdonalds ,41.844249433592466,-87.73262060501526,4334 w 26th st ,60623
ChIJf6JfKLbSD4gRK2J23lfqVNk,the fifty / 50,41.90304699799323,-87.67911932717314,2047 w division st ,60622
ChIJQ9e62R7TD4gRzqXmA0RMhqs,the budlong hot chicken,41.91820856763485,-87.6537576875213,1008 w armitage ave ,60614
ChIJCVfQNtoUsocRpn_2fBLP5Jg,moore & alleyne incorporated,41.73977125983031,-87.64508611036024,8458 s green st ,60620
ChIJzSg2BmfSD4gRq4VUXTpev3o,hot woks cool sushi,41.943312712450826,-87.67972196894466,2032 w roscoe st ,60618
ChIJMbuzb0vSD4gR9V5RRimiri4,uncommon ground,41.951064053085005,-87.65979512802838,3800-3804 n clark st ,60613
ChIJxWKy0frND4gRgHSKpw3zh2M,huaraches y quesadillas dona chio,41.96835849693989,-87.7068542288518,3119 w lawrence ave ,60625
ChIJbRQWs6jTD4gRXpH-KemnQ6E,siamkrungthep inc./krung thep thai cuisine,41.940146235765575,-87.64912448509256,3205 n halsted st ,60657
ChIJ3TXIYt3ND4gREQAJo3YlnNY,cardona's,41.96825094865302,-87.71732730641341,3537 w lawrence ave ,60625
ChIJLWDI9xzND4gRZii9wmVYPx0,el taconazo jr.,41.92450769084945,-87.73398032565292,4256 w fullerton ave ,60639
ChIJT_CyTeEsDogRciE_sfwxlBE,carm's,41.87172647304121,-87.65348716348021,1057 w polk st ,60607
ChIJ3XHKLa0xDogR_lvk96oYSA8,mejora tu estilo de vida,41.778471320036815,-87.72908901430353,4237 w 63rd st ,60629
ChIJn8OuN6nTD4gRJAjA1DXQ740,philly's best,41.93983429293103,-87.65188242188351,907 w belmont ave ,60657
ChIJc_wrbOIsDogRtm1Sz03Ok5A,edible arrangements,41.86951758162952,-87.65725911176945,1212 w taylor st ,60607
ChIJcxdRxK3TD4gRyKOSqwtHwyk,irie jerk express,41.80213364473472,-87.62120255158663,130 e 51st st ,60615
ChIJ9X4kwHrND4gRkpu9BrUQS6I,la boulangerie,41.927864202687005,-87.7061618818839,3129 w logan blvd ,60647
ChIJ3YEGma0sDogRkq1rGH3cdeM,acme hotel company/the berkshire,41.89237092419156,-87.62741589201816,15 e ohio st ,60611
ChIJ8W5nYdosDogROYNCTfB_KGg,bonci,41.88482262029685,-87.65080649153799,161 n sangamon st ,60607
ChIJb_6vGOwvDogRlIi2L3rJexE,nicky's restaurant,41.751049644162826,-87.68272735043797,7829 s western ave ,60620
ChIJV-27rAYwDogRNOedqg3i3mA,l & m starlight restaurant inc,41.742471437585046,-87.70234438264238,8300 s kedzie ave ,60652
ChIJ05Cbe-4vDogRyodfH4Q_ylE,the chicken shack,41.74947552001605,-87.68297883687882,7920 s western ave ,60620
ChIJk6Jp6FTTD4gR_eE2mObBi5M,afc sushi @ lurie childrens hospital,41.89665988131876,-87.62175523527284,225 e chicago ,60611
ChIJQbJ81K0gDogRv68mv1gHSMY,pudgy's,41.650173062475744,-87.54730766219589,13460 s baltimore ave ,60633
ChIJTxmY5eLLD4gRkIRSwx0kfY4,dunkin donuts/baskin robin,41.97591106463358,-87.78772272010706,5205 n nagle ave ,60630
ChIJCcHEZZHMD4gRG1FL7uv7_jE,la michoacana ice cream shop 4,41.931696466108924,-87.74254645501154,4614 w diversey ave ,60639
ChIJz2mSm1HSD4gRIdsoD7eBuRs,rise restaurant,41.94346602625338,-87.66377160318754,3401 n southport ave ,60657
ChIJ98pT6WspDogR1XKieWAFg5k,bbq supply co.,41.79936519578902,-87.594900164752,1301 e 53rd st ,60615
ChIJ9XeqOP40DogRY49rxrQiRGU,tbd,41.96127005883386,-87.68413885818937,2207 w montrose ave ,60618
ChIJIXB1EbLSD4gRIQ9Zl81oidQ,bite,41.900527932590926,-87.6868161338336,1039 n western ave ,60622
ChIJizr7XKfTD4gRXkYENCZdD9A,cesar's on broadway,41.93563185766838,-87.64439807874828,2924-2926 n broadway ,60657
ChIJKX1hP78sDogRilxrvJm5LGs,tri-star catering,41.886197099233314,-87.6411730001049,215 n clinton st ,60661
ChIJ7UH3ApjND4gR9cYHrwTuaWM,olive garden italian restaurant,41.94639766520745,-87.71732058369071,3555 w addison ave ,60618
ChIJcx9E-IMvDogROk8nb4LTG3g,mcdonald's restaurants,41.742420824438476,-87.6630911433338,8321 s ashland ave ,60620
ChIJs9Wz0VInDogRY5ZgRhHcoxA,steve's lounge,41.65541665055572,-87.54729079495272,13200 s baltimore ave ,60633
ChIJy7fhaZQlDogREbuVMPoxrn4,seashell on 111th inc,41.692660628792865,-87.62594006085335,100 w 111th st ,60628
ChIJAyWDx2tTBogRW7GNdv81-qE,high noon saloon,41.90977371186271,-87.67674794453644,1560 n milwaukee ave ,60622
ChIJ-eZEi3MpDogR3GAyQcwz-0g,capital one cafe,41.799432939643545,-87.58923799532896,1465 e 53rd st ,60615
ChIJb-AryaoxDogRpZ28ePtY530,valentina restaurant,41.778621898429854,-87.73530382261269,4506 w 63rd st ,60629
ChIJ_b3682IjDogRLYY-92npZCE,mariscos la sirena,41.8008335021846,-87.72829049122927,5087 s archer ave ,60632
ChIJt9EunxzTD4gRBf7YjI8tNtI,oromo cafe bucktown,41.91618570053351,-87.68752368767453,1912 n western ave ,60647
ChIJF9xHjbrTD4gRBiKK8wjrLg4,angelina ristorante,41.947205494685505,-87.64702664696026,3561 n broadway ,60657
ChIJh4pA7znLD4gRqAFzVeXXGTg,6978 soul food,41.90906215302536,-87.80024470792763,6978 w north ave ,60707
ChIJPVZFBAjLD4gRy30Xo9Nst2U,olivia's taste inc,41.93789040171536,-87.80640601940748,7157 w belmont ave ,60634
ChIJzTOmtQStD4gR83iXgq0IN0k,publican tavern k1,42.008536400868735,-87.91442843927048,11601 w touhy ave ,60666
ChIJbWrO-rklDogRspcsrCoIF6k,harold's chicken & family,41.69234392305521,-87.65253399446621,1208 w 111th st ,60643
ChIJ9fLFlrwsDogRw4DcMrNQDlY,zoup,41.87953373462755,-87.63009026893299,62 w adams st ,60603
ChIJs_6wOrPTD4gRSxByy7qjT4Q,starbucks reserve roastery & tasting room,41.89397334746711,-87.62438151862536,646 n michigan ave ,60611
ChIJATpz7IYsDogR2Dww4sBlEVo,acadia restaurant,41.8591258372166,-87.62549335064415,1639 s wabash ave ,60616
ChIJR-jFPh7TD4gRMtA_eY-Mv1E,oj breakfast lunch & brunch,41.95428475504035,-87.67735575098257,1924 w irving park rd ,60613
ChIJ1RCeXRjSD4gRD2Q_HfBfWnc,shanghai inn restaurant,41.96761495890106,-87.67900579440833,4723 n damen ave ,60625
ChIJcQEhqSutSk0RR82HJ5eHLSM,shirley's cafe,41.880512716286134,-87.7344379090307,4335 w madison st ,60624
ChIJITomf3vTD4gR0GHDRIdY7AQ,starbucks coffee ,41.95255658757639,-87.64950022697546,3845 n broadway ,60613
ChIJz9zkmQXTD4gR9vbe1XAZOvo,taco & burrito express brothers inc.,41.92847357783629,-87.64901462154842,2540 n halsted st ,60614
ChIJrVF_VmwtDogRPH4S7kovM1o,taylor gourmet morgan st llc,41.885312780714,-87.65198514048795,177 n morgan st ,60607
ChIJN8BIZwXTD4gRMI2zfrtEzMM,paula's thai kitchen,41.92659311588866,-87.64865397223507,2441 n halsted st ,60614
ChIJDR23yhKZ4jARdqd5AHsct0A,khosan & taylor,41.86956301634025,-87.65446400361422,1104 w taylor st ,60607
ChIJ-2X6ggPSD4gR75YDVB96iSA,gateway to learning special ed,41.971466216668404,-87.69021462743629,4925 n lincoln ave ,60625
ChIJ58lpULcoDogRx5yJciS8cJk,aretha's dream,41.751322101891866,-87.60935463673758,616 e 79th st ,60619
ChIJD1logv4pDogRtw7H37ld5_I,jerk 48 west llc,41.880512716286134,-87.7344379090307,4335 w madison st ,60624
ChIJHWqVHSDND4gR7yo3ipFzhpQ,kim long restaurant,41.92424241716219,-87.7543435031838,5114 w fullerton ave ,60639
ChIJp2R93axsGIcRPa2AtTB3YuI,los alamos,41.85228855469908,-87.67569747926231,2157 s damen ave ,60608
ChIJc-o-QPTbJIgRtx6DI90IZxo,animale,41.91593071729015,-87.68751557795046,1904 n western ave ,60647
ChIJE9nXn4nTD4gRfezJts8_U5U,traspasada ,41.94719645308579,-87.66871595779075,3605 n ashland ave ,60613
ChIJp6SAo9XTD4gRp-RjGRKgFJw,kie-gol-lanee comida tradicional oaxaquena,41.9734781495112,-87.65507958945189,5004 n sheridan rd ,60640
ChIJtzaQASXND4gRWiyykmXyxQE,braseritos restaurant inc.,41.909735949989646,-87.72927346612649,4107 w north ave ,60639
ChIJo6igjwXTD4gRTRndFy07LOs,chengdu impression restaurant,41.92860374503243,-87.64872470278429,2545 n halsted st ,60614
ChIJo2UNtrXTD4gRV_AGcouPFMY,pr italian bistro,41.95296441761877,-87.65464669411458,3908-3910 n sheridan rd ,60613
ChIJId32HcMyDogRXj_nsCZU3NY,mr b's inc,41.95813969935246,-87.7673124325715,4242 n central ave ,60634
ChIJef3dzP_TD4gRJhVU8tO_mBw,the boil cajun seafood,41.90315323488667,-87.67258598142034,1805 w division st ,60622
ChIJ4V6ikcjND4gRJFnKypcK3lA,northside grill,41.95979250151515,-87.72783183969106,4351 n elston ave ,60641
ChIJzSgAI93RD4gRHURk7LXBHyg,spinzer restaurant,41.99763955874522,-87.68872053987526,2331 w devon ave ,60659
ChIJsalqiAbSD4gRpHA8AiAyy-A,kimberli sushi bar & thai,41.96846702189828,-87.69322013455337,2547 w lawrence ave ,60625
ChIJf4nJYMbMD4gRvoSIhiFVeyE,g & n snack shop,41.90964983634535,-87.75269216065261,5100 w north ave ,60639
ChIJRWsDboIoDogRAazVC_SowpE,b j's  market,42.008536400868735,-87.91442843927048,11601 w touhy ave ,60666
ChIJFRkjn6jND4gRyjZIHuGi-GI,tamarindo loco,41.94029215210743,-87.7273633833375,3240 n pulaski rd ,60641
ChIJSSIYtdM6DogRJYAf8AqiJ3o,popeyes louisiana chicken,41.705208489493096,-87.7011632562526,10331 s kedzie ave ,60655
ChIJQXuM5BkuDogRwTKSqKXjRM0,el plan de lobos,41.80120185097902,-87.6879664444938,2532 w 51st st ,60632
ChIJzRHj5Ca0D4gR332_sPqHzq4,wolfgang express,42.008536400868735,-87.91442843927048,11601 w touhy ave ,60666
ChIJ4Tk11MLRD4gR_OOzJTBSSRs,hema's kitchen,41.997596381381456,-87.69141491131062,2439 w devon ave ,60659
ChIJpYw_CrolDogRFlh7Y5Pfw2I,nadia's gourmet grapes,41.706792860007255,-87.64443891865488,841 w 103rd st ,60643
ChIJjecVmX7ND4gRxk8xlh5YWfE,ecuador restaurant inc,41.93196325562962,-87.70099958246527,2923 w diversey ave ,60647
ChIJ4_ovZs8sDogRyw3X3QCiI-Y,oriole,41.88613536862084,-87.6451750641585,661 w walnut st ,60661
ChIJebqefCy0D4gRwlDh1knALSI,brioche doree t-3,42.008536400868735,-87.91442843927048,11601 w touhy ave ,60666
ChIJ3SXSgX3ND4gR4fD_C6KhXEU,mi tocaya,41.92857498112596,-87.6975783536939,2800 w logan blvd ,60647
ChIJT5_wwO_ND4gRGBAfgUNZSdg,thai valley restaurant,41.96474029214609,-87.70850367911709,4600 n kedzie ave ,60625
ChIJuWoM1qTTD4gRHzAbzSfIsWg,uncommon  ground,41.99802474346836,-87.66556345762726,1401-1405 w devon ave ,60660
ChIJw6FXY7AsDogR4il7fxEkO74,subway ,41.88563898075977,-87.62905001540052,29 w lake st ,60601
ChIJb2Dng6zOD4gRcgle0FFqmok,tuxpan mexican grill,41.98249929727471,-87.77415091836443,5540 n milwaukee ave ,60630
ChIJp6jXoQgxDogRR089q8ECRpU,harry caray's shortstop,41.78932932326538,-87.74164564419638,5700 s cicero ave ,60638
ChIJUU6Lg6zOD4gR3iJ3D4Pp7uc,rosati's pizza,41.98258310472735,-87.77422708745796,5544 n milwaukee ave ,60630
ChIJo0uJobwsDogRbuJqpD7VWh0,the marq,41.87953523408122,-87.63002421135039,60 w adams st ,60603
ChIJG32zvLssDogROO1LZwCv414,mackelly's,41.864465603515626,-87.62393580466959,1347 s michigan ave ,60605
ChIJJ4IlNcQvDogRYHX_-5Hr3wk,little baba's,41.76479738346464,-87.68389929690201,2414 w 71st st ,60629
ChIJDxr_VOXSD4gRNAQ5E2GqjTA,kinnaree,41.92563809974706,-87.66801562444297,2415 n ashland ave ,60614
ChIJL-ZSfAe3D4gRQRlxa_S5yLs,subway sandwich,42.008536400868735,-87.91442843927048,11601 w touhy ave ,60666
ChIJzW0A58HMD4gR7tyhqN_YpJs,minna's restaurant,41.916956725681096,-87.75280847188141,5046 w armitage ave ,60639
ChIJneZz_8YsDogRxVV6s0sGoBo,starbucks coffee ,41.88199433820508,-87.6397586848809,500 w madison st ,60661
ChIJdRDdZ1YtDogRCBENE6Wwd28,the black barrel tavern,41.88155995723971,-87.65437239771845,1061 w madison st ,60607
ChIJjdNdxrDTD4gRvI84ae1cPf4,salsita,41.949338131952636,-87.64969635420978,3706 n halsted st ,60613
ChIJUcfV0gwpDogR5LrQqcwIdjU,morry's deli,41.795119210139816,-87.5855552597703,5500 s cornell ave ,60637
ChIJ2y7xkU0rDogR5qOTZYZF-PM,jimmy buffett's margaritaville bar & grill,41.892249163400116,-87.60951804879333,700 e grand ave ,60611
ChIJdZ2X6Z_TD4gR0sYT4UPyZ1c,brookdale lake shore drive,41.93617164858792,-87.63693905225722,2960 n lake shore dr ,60657
ChIJW_GHgKvOD4gRt-TFC73R5W0,cafe marbella,41.98235014106909,-87.77365984476519,5527-5531 n milwaukee ave ,60630
ChIJsYTK50N0XUARs3i6QD-D_qc,time out market,41.8868708394097,-87.65050119372705,916-926 w fulton market ,60607
ChIJC7NrQfjRD4gRaLPynJ87WxA,san soo gab san corp,41.9772862709721,-87.68905760864439,5247-5251 n western ave ,60625
ChIJ2TDH1SrTD4gR76I8BCM9eq4,pie-eyed pizzeria,41.89615078732557,-87.65579995878325,1111 w chicago ave ,60642
ChIJtU4nVAXLD4gRCzA_IM8RYw0,"4 yolks,inc",41.92888332655037,-87.806280071214,2659-2661 n harlem ave ,60707
ChIJm4WbJrQsDogRB324hdS0fxQ,tba,41.896182324221726,-87.66735606423252,1600 w chicago ave ,60622
ChIJY6fhYGgtDogRbddrvGYx31Y,johnna cafe,41.874315813612796,-87.68638937160839,520 s western ave ,60612
ChIJMQlvvmDND4gRzU9ZUpdSOVo,parson's chicken & fish,41.9175611431489,-87.70116990701356,2946-2952 w armitage ave ,60647
ChIJmbalhAXLD4gRTuJ6C5VOpx4,ristorante agostino,41.93133954522792,-87.80636676313536,2817 n harlem ave ,60707
ChIJq6om9QPTD4gRsv7_s9DjnLQ,old grounds social,41.92912423550477,-87.65333791705929,950-952 w wrightwood ave ,60614
ChIJ9wz9v68sDogRaFBaY1O8wk8,mccormick & schmick's seafood restaurant,41.88670755506981,-87.6278834784023,1 e wacker dr ,60601
ChIJoSM9dRfTD4gRVyYQyUSNRko,fritzy's of lincoln park,41.9180886243431,-87.64708314797943,723 w armitage ave ,60614
ChIJAfHLRoXND4gR0ouYOCIo7pU,starbucks coffee ,41.91633360285599,-87.74592795599106,1941 n cicero ave ,60639
ChIJDW0GpdXTD4gRuURgMT3_mMo,uptown pho,41.973415011961535,-87.65542230934776,1010 w argyle st ,60640
ChIJh3i0BqYsDogR6yp0y6TFlOQ,downtown pizza & wing,41.918261583575294,-87.65029313626188,844 w armitage ave ,60614
ChIJGcq0BdLSD4gRkkxMBndp-E4,alegria's seafood,41.900452559364034,-87.66756009821934,1024 n ashland ave ,60622
ChIJ4R_7zJQtDogRZyK-H8teuPY,starbucks coffee ,41.872742312472695,-87.67744609066818,715 s seeley ave ,60612
ChIJESGqvqbTD4gR3rgf0uNishU,last bay beer company llc,41.939309677466014,-87.64422837055052,3155 n broadway ,60657
ChIJvR0eUu82DogRyZD0bGSnAZA,little  caesars ,41.79004396855189,-87.80130039473886,5601 s harlem ave ,60638
ChIJbwCubnMzDogRE5Ssbl1QIpU,spice & sugar inc,41.890389110395496,-87.70625304763891,501 n kedzie ave ,60612
ChIJ54B6CWEoDogRofBtCIR_7l0,the banana leaf corporation,41.75171043268835,-87.5764686289653,1948 e 79th st ,60649
ChIJI_KM7nzTD4gROHQv5iw6oMg,harolds the fried wing king,41.96549905070616,-87.65824706819338,1118 w wilson ave ,60640
ChIJpdxbkSzSD4gRUBuNMXdNhXg,fiesta mexicana restaurant,41.92603755999104,-87.64937908456434,2423 n lincoln ave ,60614
ChIJr7DaYsnSD4gRZSxu2ZGQrfA,happy village corp,41.901264009685704,-87.67461482324751,1057-1059 n wolcott ave ,60622
ChIJH_pcChHTD4gRSAGkVbIq6bM,chicago halal,41.922731532421736,-87.6447528911125,2233 n lincoln ave ,60614
ChIJWQlgye42DogRLeUIHVt20oQ,european chalet,41.79256531973131,-87.80140183966991,5445 s harlem ave ,60638
ChIJqechWyUtDogRuO1So_sZ0Dg,chicago philly stop,41.88543498614326,-87.66708805526098,1600 w lake st ,60612
ChIJA_VoaKjLD4gRCea40cpZDcc,e & h pizza inc. domino's pizza,41.94086523884717,-87.80699550827063,3336 n harlem ave ,60634
ChIJI_KM7nzTD4gROHQv5iw6oMg,harold's the fried wing king,41.96549905070616,-87.65824706819338,1118 w wilson ave ,60640
ChIJcUfdU7bSD4gR5NotOwi6iXk,folklore,41.903254515018354,-87.6798250453467,2100-2102 w division st ,60622
ChIJ88Zs70MvDogRnnG--_nebpo,king gyros,41.7506195104644,-87.6344092993733,7904 s vincennes ave ,60620
ChIJVakpBLUtDogRjX6vWShKHT0,tan lu,41.85410541494822,-87.63405906823053,2101 s china pl ,60616
ChIJ2xVo2bLTD4gRfJsGQqHWg-Y,mcdonald's ,41.94745757407912,-87.65689136051212,3610 n clark st ,60613
ChIJ4xNDcc8lDogR3RXeP7PYThQ,79th bbq,41.692267088936674,-87.64222983410406,11101 s halsted st ,60628
ChIJcx6UUeXSD4gRKnrXz_0D0es,cairo kebob,41.92528006794063,-87.66677400880488,1524 w fullerton ave ,60614
ChIJgYBP_awsDogRTo3IGNTb_sY,su casa,41.89319255965124,-87.62617281400281,49 e ontario st ,60611
ChIJv1frYr4sDogREXHhVYWaBsc,starbucks coffee,41.87800606262711,-87.63402203216755,209 w jackson blvd ,60606
ChIJcdi8W97RD4gRLV4FZC9MJXs,mysore woodlands,41.9977653535896,-87.69428406894725,2548-2550 w devon ave ,60659
ChIJFxV6T97RD4gR6miazdGU2iI,sukhadia sweets & snacks,41.99753950771954,-87.69461506221796,2557-2559 w devon ave ,60659
ChIJhXC13jwzDogRuqPZYxpIsho,"joe's barbque, inc",41.88057114596428,-87.74795724892677,4900 w madison st ,60644
ChIJu7_9VLwsDogR4CnidfsxOf8,freshii,41.87803442833617,-87.63117140697916,111 w jackson blvd ,60604
ChIJq7UYSn3MD4gRkhFbS9Jaric,chicago by night,41.93868377475747,-87.76656249384537,5600 w belmont ave ,60634
ChIJ14vEeBgsDogRwtqxikGu8EU,snack shop restaurant,41.82366771868339,-87.6382950217091,452 w pershing rd ,60609
ChIJOR2quGHMD4gRxDNvNnONhPk,jimenez fresh market,41.93876196579179,-87.76040707140056,5330 w belmont ave ,60641
ChIJ8XBx-tUtDogRH0cc9DS6eS4,dosirak,41.86940026045194,-87.66475477893509,1514 w taylor st ,60607
ChIJ55lxrcDSD4gRx2itHyvso0M,dimo's pizza six corners,41.91091779442157,-87.67732639626594,1615 n damen ave ,60647
ChIJa6dPJmPJD4gRMizTuOC8zxA,fried rice express,41.98080501735688,-87.80502338256187,7108 w higgins ave ,60656
ChIJSVVC6IUsDogR3J8NXdD2_J4,tapas valencia,41.861018239854175,-87.62741709999584,1530 s state st ,60605
ChIJHaE5wbDTD4gRYJX3YZZN0NQ,kit kat lounge and restaurant,41.94914733742978,-87.64968983874849,3700 n halsted st ,60613
ChIJg8Jbe88sDogRhDDyoU8q34Q,saint lou's assembly & moneygun,41.88580606886823,-87.64508754379452,660-664 w lake st ,60661
ChIJ-dRYqz9TBogR142lD6pX4g4,urban  interests,41.96881436962451,-87.68264478410583,2124 w lawrence ave ,60625
ChIJO69IKxjTD4gRmEznbscO3rU,taco joint,41.917916818190015,-87.64835076816347,1969 n halsted st ,60614
ChIJa3CSbMYsDogR5h2hx43APA4,proxi,41.884324060156366,-87.64239826176153,565 w randolph st ,60661
ChIJw7z_FecxDogRjCH2Ar5ecZY,gorditas aguascalientes,41.797543905371754,-87.70352333204033,5249 s kedzie ave ,60632
ChIJebwHgq_ND4gRm5CbNzPQQTY,pl lounge,41.944298159597494,-87.7274828078833,3454-3456 n pulaski rd ,60641
ChIJaWFUsBbND4gRQUqCi1xI_GI,antojitos guatemaltecos,41.923777505298624,-87.77191442640833,5823 w fullerton ave ,60639
ChIJ9QhNWp3TD4gRk4s5h0Xo6fo,the reveler,41.94332803720648,-87.67818416456056,1954-1958 w roscoe st ,60657
ChIJCW7NpqIsDogR22ZO9TFDTq0,panera bread ,41.875179056057796,-87.6274737894488,525 s state st ,60605
ChIJX2JuCWzJD4gRt-ELsahjeHY,iron horse ale house,41.993534218514064,-87.80126102080993,6158 n northwest hwy ,60631
ChIJ1aBKEEbSD4gRyqcn8FjKJXo,zia's lago vista,41.951186412380856,-87.66882564060083,3817-3819 n ashland ave ,60613
ChIJda7hDpzMD4gRuX50kgXcpIw,buffet los amigos restaurant inc,41.923777505298624,-87.77191442640833,5823 w fullerton ave ,60639
ChIJG5BXjdXPD4gRbSJ73FvW9hM,gulliver's inc,42.019245840973895,-87.69833170944449,2727 w howard st ,60645
ChIJu_TFPSEuDogRiEgMgzLKebE,mezquite pollo express,41.79357366564852,-87.6942215395728,2809 w 55th st ,60632
ChIJidtAfq7TD4gRwc1ttic6DOo,p s bangkok restaurant inc,41.94292361355368,-87.65290676740509,3345 n clark st ,60657
ChIJl9cZLG4pDogRSMdRTrEN8Tw,joe's & ken's ii,41.80234131701212,-87.58937243573278,1461 e hyde park blvd ,60615
ChIJwbT5X5TND4gRr1yuXAnCWfk,fast super buritto,41.95428475504035,-87.67735575098257,1924 w irving park rd ,60613
ChIJC4m-DC4tO4gRDl_0RyUV0aM,ringo,41.92508530321327,-87.66496129048491,1441 w fullerton ave ,60614
ChIJc43hdSe0D4gRcqi4lDOeuy4,o'hare bar,42.008536400868735,-87.91442843927048,11601 w touhy ave ,60666
ChIJVVVFV88sDogRIs6NMpEi61s,kumiko,41.885807019661705,-87.64417189465739,630 w lake st ,60661
ChIJja5RoCC0D4gRhhxNJEmzElw,reggio's pizza express,42.008536400868735,-87.91442843927048,11601 w touhy ave ,60666
ChIJ012p988sDogRosA0Nl8jVeI,paddy o fegan's,41.88583206160444,-87.64762629896792,204 n halsted st ,60661
ChIJjSQXEVjSD4gRdKNC04xOtW0,boston market ,41.9367209159054,-87.6687025633007,3020 n ashland ave ,60657
ChIJDQm8OPAsDogRmgVNRxuGYBM,bar louie,41.864755663393886,-87.64669917908262,1325 s halsted st ,60607
ChIJHwGF1ibTD4gRRzjI_B6yBg4,walton room,41.90014761050013,-87.62228781757698,188 e walton pl ,60611
ChIJ0XMVgHDND4gRp_Ury-m5I-Y,el cid tacos ,41.929762864832895,-87.70722323405842,2645 n kedzie ave ,60647
ChIJp8kb2f8sDogRiV6FGHDSke8,s.k.y.,41.85781773489261,-87.65796102681593,1239 w 18th st ,60608
ChIJtUmUTCPLD4gR43GIM_E5Lqs,maria's mexican restaurant,41.91456849501297,-87.80580867011524,1905 n harlem ave ,60707
ChIJ64-F2bW3D4gRPKrkCi4LHNw,restaurant associates,41.88594495760403,-87.65346178255953,210 n carpenter st ,60607
ChIJOS2dP6wsDogR1PfAv2QUsnM,ani,41.93727241797709,-87.66552486724432,3056 n lincoln ave ,60657
ChIJeexlvLosDogRBpSRf4rnZrg,do-rite donuts & chicken,41.87856015362371,-87.63652387205532,233 s wacker dr ,60606
ChIJTXe-3izQD4gRNj454d9WUO0,siam pasta ltd.,42.01645779645396,-87.69035474983076,7416-7418 n western ave ,60645
ChIJRSn-ONe1D4gRweQrEB5Ql5A,skybridge restaurant & bar,42.008536400868735,-87.91442843927048,11601 w touhy ave ,60666
ChIJFcjJdp22D4gRsCl-K12pXjI,the great american bagel,42.008536400868735,-87.91442843927048,11601 w touhy ave ,60666
ChIJl1rfEYjRD4gRfUmD6UcDy5Y,middle east bakery & grocery,41.97629123440586,-87.66897680929684,1512 w foster ave ,60640
ChIJiXn9maMsDogRfH8j7sYDi94,opus,41.87942967304209,-87.62527091340576,65 e adams st ,60603
ChIJpfUT2bfRD4gRXeQwTZ9niNc,kabob king grill,41.99765846224235,-87.68767204213611,2305 w devon ave ,60659
ChIJnTYg56bTD4gRuFdFOfroM6Y,mortar and pestle,41.937939792358364,-87.64447681700325,3108 n broadway ,60657
ChIJV7OQE_TRD4gRNeOL_OPW13Q,tea leaf garden,41.99765846224235,-87.68767204213611,2305 w devon ave ,60659
ChIJwTNVeXrND4gR7ioIQTZjhlc,passion house cafe 1 llc,41.92934429527824,-87.70721753045883,2631 n kedzie ave ,60647
ChIJedVCmAAtDogRr8Y1yE6xCcU,la michoacana premiium,41.79875025743268,-87.72346641018879,5160 s pulaski rd ,60632
ChIJXWvF8a3TD4gREr9Us5SfzXw,the graystone tavern,41.94477276328081,-87.65410784813349,3441 n sheffield ave ,60657
ChIJdxvhYGDND4gR-x5wrJYKKkw,super jalapeno grill inc.,41.91757216077945,-87.69985903100971,2910 w armitage ave ,60647
ChIJyxMIS8YsDogRNKyFWZgZJ6o,loop soup,41.88418750712781,-87.64111966683218,131 n clinton st ,60661
ChIJpdZfQcUsDogRQ509w3wZR5g,ronero,41.88451799637232,-87.64730383120977,738 w randolph st ,60661
ChIJLdiR79ssDogRYeeX0zymEAs,pockets,41.881583707596405,-87.652408263381,1009 w madison st ,60607
ChIJRYBEOIwYx4URBGlfTIRBhj4,montealban,41.92392648360924,-87.77632683025247,6012 w fullerton ave ,60639
ChIJQ03l6NksDogRa6toaMVXaK4,capriotti's sandwich kings llc,41.885144989352106,-87.6543153671728,171 n aberdeen st ,60607
ChIJX2yjUPMtDogRNhHXmdCz-Bo,65 poke,41.88199433820508,-87.6397586848809,500 w madison st ,60661
ChIJZesEhq4gDogRIIfwYP-617Y,gorditas adrian's,41.649363992063094,-87.5468534433004,13507 s brainard ave ,60633
ChIJSW45wd0xDogRjwzrkmFWf3I,"manolos tamales, inc. ",41.79595669469915,-87.70347960433394,5341 s kedzie ave ,60632
ChIJffLJO8MsDogRLv-ZPBnvROI,greek islands restaurant,41.87918309269135,-87.64742623446782,200 s halsted st ,60661
ChIJC_VOEdAsDogR4ORAoneQ7nY,gus's world famous fried chicken,41.88666389977879,-87.64934266534462,847 w fulton market ,60607
ChIJD-dqScYsDogRF6FSDLxT3H8,cheesus,41.88418750712781,-87.64111966683218,131 n clinton st ,60661
ChIJ88rMYbLSD4gRbAmj1oIglM8,salsa  picante,41.899021069348024,-87.6867792752013,949 n western ave ,60622
ChIJ2RtTWRgtDogRPCjq4g_BsWo,omakase yume,41.883052886559646,-87.64468860442474,651 w washington blvd ,60661
ChIJs58hV-XSD4gRSfFRz1tmC74,vegan plate,41.925265971958105,-87.66779312170318,1550 w fullerton ave ,60614
ChIJ-55hZ3LJD4gR1wV2SHO4ypE,brandy's restaurant,41.995346484780534,-87.80696582318247,6262 n harlem ave ,60631
ChIJ62Rb7EDSD4gR_UPI9zYiLnE,i-cafe sukur's place/pide ve lahmacun,41.95431818306882,-87.67476031983938,1812-1814 w irving park rd ,60613
ChIJSRu99cbSD4gRz_mDVW6zBXQ,sushi burrito,41.93503300287068,-87.64437894773916,2904 n broadway ave ,60657
ChIJf_RkA3XTD4gRhrCDBk8IX2w,bacinos italian grill,41.93298721327045,-87.63652893636034,248 w diversey pkwy ,60657
ChIJvUqGtZfRD4gRCUDxMbtfSBw,alexander's,41.994391180074615,-87.67029582459736,6158 n clark st ,60660
ChIJqw_sliC0D4gRphGnBhlOCYU,manchu wok,42.008536400868735,-87.91442843927048,11601 w touhy ave ,60666
ChIJJ08bYBjSD4gR-Hw7LbRbOO8,budackis drive-in hot dogs,41.96807497181902,-87.67901960462584,4739 n damen ave ,60625
ChIJS6Ttf-bND4gReCF8NAUJN-U,cilantro taco house,41.96852200693321,-87.71237950497346,3336 1/2 w lawrence ave ,60625
ChIJP1cwceTND4gRhnrVzX1YOWY,necessary & sufficient coffee,41.928351529514096,-87.71809710408121,3624 w wrightwood ave ,60647
ChIJJY5kDjYyDogR4-uldtFIzx8,home run inn pizzeria,41.83270024324778,-87.61684215275646,3401 s dr martin luther king jr dr ,60616
ChIJoUQJMzEtDogR3013Ht-cueE,jewel events catering,41.877791648104406,-87.63652434443534,311 s wacker dr ,60606
ChIJrc2yQaUsDogRBDIsaBIbnYU,macy's,41.88347312241303,-87.62772975002919,111 n state st ,60602
ChIJxTfADSe0D4gRIseTIgQ-J7k,la tapenade gate h14,42.008536400868735,-87.91442843927048,11601 w touhy ave ,60666
ChIJkXGe0h-xD4gR19o4DsnLit0,mcdonald's corporation,42.008536400868735,-87.91442843927048,11601 w touhy ave ,60666
ChIJ0T8ttwktDogRGqYtYQWKuvU,"5 rabanitos, inc",41.85783609011153,-87.67100647272234,1758 w 18th st ,60608
ChIJkSdEU0bTD4gRHHK_yCsX2ag,smoothie joint,41.94457106068293,-87.65378324443094,948 w newport ave ,60657
ChIJqX5coRctDogR3DW47ijHFT8,nancys pizza,41.88317183484875,-87.65213310038212,1000 w washington blvd ,60607
ChIJRSn-ONe1D4gRqNKoo-oJjvs,o'briens restaurant & bar,42.008536400868735,-87.91442843927048,11601 w touhy ave ,60666
ChIJOX8PJTosDogRrAgvoAzz9Sc,bridgeport family restaurant,41.83069533520227,-87.64625091576728,3500 s halsted st ,60609
ChIJlwkCJqbRD4gRQVYmkEcV8Hk,starbucks coffee ,42.00471569947857,-87.66100295990694,6738 n sheridan rd ,60626
ChIJJ08bYBjSD4gR-Hw7LbRbOO8,budacki's drive in,41.96807497181902,-87.67901960462584,4739 n damen ave ,60625
ChIJnXMPpnQxDogRoknUK0SSSGI,george's,41.79877258416171,-87.74149890973776,5341 s archer ave ,60632
ChIJVeJy1dstDogRs69DU9VGJwI,convene,41.879885440300995,-87.62921159480324,131 s dearborn st ,60603
ChIJ53s4RccxDogR1VHGXc8PwrI,huaraches & quesadillas mama quina,41.80061941881158,-87.71045584912062,3445 w 51st st ,60632
ChIJkeYCnhDTD4gRMuyYRceos4Q,shine restaurant,41.92193238503892,-87.64833660258915,752-756 w webster ave ,60614
ChIJ6QyXFVPKD4gRHL91iiL0TlA,mama luna's lounge,41.9450927220515,-87.81702497150455,7605-7607 w addison st ,60634
ChIJvcIzJcEsDogRsfUdDIHbvZk,dylan's tavern & grill,41.87995707099538,-87.64128000375055,118 s clinton st ,60661
ChIJcUMMFmrMD4gR_2NeZyiV9Ns,michella terrace,41.95317843969206,-87.75780441878462,5215-5219 w irving park rd ,60641
ChIJVYa4KW_LD4gR8MybaqOAT8Y,taco bell,41.923739299500106,-87.79134897916927,6622 w fullerton ave ,60707
ChIJGZ0I2D7SD4gRtoFBpisPp44,el gusano rojo ii,41.95842479853341,-87.6737427755797,4217-4219 n ravenswood ave ,60613
ChIJI3EJbK3ND4gRGus4hDTymXU,thai aree house,41.94602897693361,-87.73546639404336,3592 n milwaukee ave ,60641
ChIJNYrg38UsDogRP1lxJuC05hw,avec,41.88432104069269,-87.64342475334715,615 w randolph st ,60661
ChIJIzY060bMD4gRvBdHfQrMBwU,ysabel's filipino cuisine,41.95348501505813,-87.750248227467,4908 w irving park rd ,60641
ChIJOSrFrr7RD4gR65bydipAWnQ,tbaar,41.998066925792386,-87.66158910390901,1223 w devon ave ,60660
ChIJ978yrBnTD4gRRu5g9ZGCV9w,blue door farm stand too,41.918097142688325,-87.64658724128225,711 w armitage ave ,60614
ChIJb-MhOgctDogRwsrbYX5VpyY,"coyotes restaurant, inc.",41.85773127336358,-87.66335577631256,1451 w 18th st ,60608
ChIJBZiqlknLD4gRvgytA49w_Fo,fannie schmoe's bakery,41.9607447637819,-87.75400366103027,5040-5044 w montrose ave ,60641
ChIJyRbhDjEtDogRCVyIDZNeQlU,"ofrenda, inc.",41.843618878617896,-87.67547236453608,2639 s damen ave ,60608
ChIJ1bbWQ2gzDogRtfbNwM4b8mg,t&t's red hots,41.88184591068643,-87.7258541523999,4001 w washington blvd ,60624
ChIJy0rNl8UsDogR6ZPf5veEEyg,catalyst ranch,41.88452928463143,-87.64494524641546,656 w randolph st ,60661
ChIJ_____yvTD4gRfu9zNYTPWrs,cmm food services,41.7796613368989,-87.64463773881643,6301 s halsted st ,60621
ChIJ0-3yUgDTD4gR27-rQ2uSB8s,bolivar y lincoln venezuelan cafe,41.94319768420913,-87.65405954840116,3349 n sheffield ave ,60657
ChIJN_uIe0jTD4gRSWMIsnQBKcY,grand mongolian hot pot,41.93503300287068,-87.64437894773916,2904 n broadway ave ,60657
ChIJ9YB7D-LND4gR-J7JrvrvyzQ,"rice and roll, inc",41.97582181741593,-87.71172940864521,3312 w foster ave ,60625
ChIJa2D5BrbTD4gRpmqrqYOW4TY,thorek memorial hospital,41.95464082537165,-87.65156901235385,850 w irving park rd ,60613
ChIJvUqGtZfRD4gRCUDxMbtfSBw,alexander's restaurant,41.994391180074615,-87.67029582459736,6158 n clark st ,60660
ChIJYTCDnhDTD4gR4vyzLBwTFOc,toast,41.92193497846529,-87.64809461536863,746 w webster ave ,60614
ChIJL7OTAYjMD4gRZp9BKELanBk,barbakan restaurant,41.93803468310132,-87.76633200355475,3143-3145 n central ave ,60634
ChIJdVoqJiLTD4gR99FzGBxH5us,amatos pizza,41.91364779062639,-87.65292394889559,953 w willow st ,60614
ChIJISr8NXwsDogREq3wuv4z0qU,pizzeria brandi,41.83574905946485,-87.66584167179421,3170 s ashland ave ,60608
ChIJmV0dXhHSD4gRF1qChNGyLyo,tavern on littlefort,41.95677163177934,-87.68075733672262,4128 n lincoln ave ,60618
ChIJN5eatIbSD4gRiydIahv9qeo,tiger ceviche,41.88418750712781,-87.64111966683218,131 n clinton st ,60661
ChIJPYXJ2dAxDogRDjq0ExCNNjk,dunkin donuts/baskinrobbins,41.785340191257184,-87.70317432384229,5931 s kedzie ave ,60629
ChIJX5r8Qe3SD4gRI2Ssw7-bQ9U,subway sandwiches,41.93118733395421,-87.6770555951477,2754 n clybourn ave ,60614
ChIJ-WVqbMcsDogRmuRtdQ5u2xo,"mezza grilled wraps and pita, inc",41.88197704758362,-87.63887583987513,2 n riverside plz ,60606
ChIJ108OQCRSDogR4EzJ1dL0zr0,"sodexo america, llc",41.880699246124394,-87.63972502663869,500 w monroe st ,60661
ChIJdTxmdGfSD4gRpv1cwBt-jkk,kitsch'n on roscoe,41.943104563544715,-87.67867885196077,2005 w roscoe st ,60618
ChIJZxAVKSLTD4gRm9lVGc0CGl0,jaimitos burritos,41.913522386843255,-87.65294009283626,1781 n clybourn ave ,60614
ChIJP_TVsKjTD4gRT3SAs0CWndw,new modern grill inc,41.939938440744974,-87.64911829546905,3171 n halsted st ,60657
ChIJxUCmGZ62D4gRJOtCaj-8qSY,berghoff cafe,42.008536400868735,-87.91442843927048,11601 w touhy ave ,60666
ChIJfwU3T-IsDogRbUYDrddeCUw,papa johns pizza,41.86931406589003,-87.65625439904653,1151-1161 w taylor st ,60607
ChIJ2_70aXq2D4gRpM0ndnx58sY,billy goat iv inc,42.008536400868735,-87.91442843927048,11601 w touhy ave ,60666
ChIJvzyLFM8xDogR6NP3IzUkxs4,"paleteria la michoacana 1,inc.",41.786241182983545,-87.71077772448048,3500 w 59th st ,60629
ChIJxazZ-jIuDogRYsvtkPHUFGw,super sub and gyros 2 inc.,41.7791184453953,-87.68575151846922,2451 w 63rd st ,60629
ChIJFR3zFUHTD4gRiSGHi3J4B7Y,roots handmade pizza - second city/utopian tailgat,41.9114943677633,-87.63486809549644,1610 n wells st ,60614
ChIJb-a89_vRD4gRnk_zMMlrSt8,best sushi joon inc.,41.98134576518485,-87.69265967008852,5501-5503 n lincoln ave ,60625
ChIJCUY9amwtDogRNKnTLw4cDfM,politan row,41.88337034289793,-87.65426146319142,111 n aberdeen st ,60607
ChIJ431Gc63ND4gRzD0l8jpkpKY,barcello's pizza,41.945689474851214,-87.73490602734594,3576 n milwaukee ave ,60641
ChIJsQBKKE7TD4gRzk4bQL8afws,velvet taco,41.902127532558154,-87.62850139922516,1110 n state st ,60610
ChIJo-n5p6_OD4gRK3iLvSWTGuQ,duke's,41.9846184303652,-87.76815926802584,5659 n central ave ,60646
ChIJX_oLUGEtDogR2RkXnAEWiVo,suchi,41.883052886559646,-87.64468860442474,651 w washington blvd ,60661
ChIJ3eYKluYxDogRGf6nxVsBvd8,chuck 'e' cheese's,41.80167003483172,-87.70393836191948,5030 s kedzie ave ,60632
ChIJFxC1nEwvDogR1YnBiq_SROY,just jerk cafe,41.750911572609574,-87.62048290701445,119 e 79th st ,60619
ChIJWSGBHZLLD4gRksbWXjvW2BA,dunkin donuts / baskin robbins,41.953021362778074,-87.7869561311957,6408 w irving park rd ,60634
ChIJxX9i6lAoDogRHtqMcbn92oA,royal flat caribbean jerk cuisine,41.76638575429732,-87.57248700864004,2134 e 71st st ,60649
ChIJPTKQn0HMD4gR6kz3Jn6t_Qs,"frank's chicago shrimp house, inc.",41.95344289157839,-87.75439576492936,5052 w irving park rd ,60641
ChIJRZxmyOe02IcRv0U8nQQY7hE,thomas coffee shop,41.73684226984659,-87.58294662624279,1657 e 87th st ,60617
ChIJO7epIgzTD4gRZBrmnpnHXKQ,70 eats,41.88209336730132,-87.63039164462683,70 w madison st ,60602
ChIJ-2C09J_RD4gRkKygWoB3jMQ,flaco's tacos,41.99467730922356,-87.65903118070459,1116-1120 w granville ave ,60660
ChIJYSWadWfSD4gRDyYP73pClFk,volo restaurant,41.94332263059663,-87.67884909733532,2008 w roscoe st ,60618
ChIJZ2xUVgbSD4gR6psY_n8mdck,sandunga,41.968454448636564,-87.69461991509863,2619 w lawrence ave ,60625
ChIJMaceXcDJD4gRdlPbuf454PA,"soup & scoops, llc",42.00238973839252,-87.81707622356394,6709 n olmsted ave ,60631
ChIJQYsDvlApDogRu1EEMWXTHQU,1 fish 2 fish,41.80195099472944,-87.58899848830143,5115-5121 s harper ave ,60615
ChIJK7V4RtosDogRVn4jO04x7TE,umami burger,41.88422707893843,-87.65151813840151,945 w randolph st ,60607
ChIJk6aPvC3MD4gRam5NOpcAcAU,shibam restaurant catering,41.967667844732325,-87.74018351190563,4748 n kenneth ave ,60630
ChIJwwFZ-k4tDogRImmv8YJ0Bs8,ghin khao eat rice,41.85222860979845,-87.67948332568865,2128 w cermak rd ,60608
ChIJYaQTSE0tDogRxYPohY08kHg,village pizza,41.89585612058927,-87.68664748817481,2356 w chicago ave ,60622
ChIJhUm4nWnJD4gRKb8_uKXUoRk,mo dailey's pub & grille,41.99148225930689,-87.7978116394828,6064-6070 n northwest hwy ,60631
ChIJp-kIL6nTD4gReF8DhjPC0JY,azteca grill ,41.93984552587924,-87.65110497449827,847 w belmont ave ,60657
ChIJcYkFH2IsDogR4dEmj6YOkZk,chiu's great wall restaurant,41.85388797248053,-87.63450742813662,2127 s china pl ,60616
ChIJ8eghBxrLD4gRn5wS31W_iSg,el alegre burrito,41.923884973566324,-87.80619241407982,7193 w grand ave ,60707
ChIJcxdRxK3TD4gRyKOSqwtHwyk,irie tavern,41.94364614899897,-87.65382313998201,3404 n clark st ,60657
ChIJJ_RWN2DMD4gRRe4sHdFWvNM,luna llena sports grill,41.93856565739177,-87.75855584047643,5247-5249 w belmont ave ,60641
ChIJHycPz3PYEYgRY8K0fS2UqUQ,route 66 pizza,41.71011639743625,-87.53255649991655,10180 s indianapolis ave ,60617
ChIJDTVJ_u3ND4gR7ejiBTAJwYI,"taqueria el aguila real, inc",41.96129816173357,-87.70795210214148,3152-3154 w montrose ave ,60618
ChIJAS-RgB3ND4gRkDqDLfkY2uE,international supermarket inc,41.81056567737924,-87.66517051690172,4556 s ashland ave ,60609
ChIJBReOeSEtDogRtG7X4jctrOQ,the hampton social,41.8918694700262,-87.6227485839992,164 e grand ave ,60611
ChIJq2uomi3MD4gRy7qQfy-lpes,"1,200 sq.ft. - yemen restaurant, inc.",41.967667844732325,-87.74018351190563,4748 n kenneth ave ,60630
ChIJ8aheqIjND4gRMPvtqlfFI3U,panda express ,41.94654251477401,-87.70247583120907,2949 w addison ave ,60618
ChIJqYYJXhMsDogRWuCPkY0NxKk,turtles,41.83468535402639,-87.63309454134783,238 w 33rd st ,60616
ChIJp-kIL6nTD4gReF8DhjPC0JY,mixteco,41.93984552587924,-87.65110497449827,847 w belmont ave ,60657
ChIJ6_b8Hq7TD4gRceO77qdWfMI,momo factory,41.94015821312763,-87.64455028174727,3202 n broadway ,60657
ChIJSRaEyojSD4gROELFY-7C07o,forever yogurt - logan square,41.931465996205475,-87.68656175913836,2741 n elston ave ,60647
ChIJC4USPKzTD4gRYcCRg302yps,jennivee's bakery,41.94183566648943,-87.6540188204789,3301 n sheffield ave ,60657
ChIJv9BaR7UsDogRwgNjPMStF0k,mr beef,41.89427722476256,-87.63725825318113,666 n orleans st ,60610
ChIJy9hkIKTTD4gRVy6aNBKE6VI,zachi express,41.94015821312763,-87.64455028174727,3202 n broadway ,60657
ChIJAxAs5pwsDogRXSCDOL7adbA,little branch cafe,41.865931036719715,-87.621494195204,1251 s prairie ave ,60605
ChIJZ_fV-KcsDogRJ9wUoaiaJ_s,brown bag seafood co.,41.87856015362371,-87.63652387205532,233 s wacker dr ,60606
ChIJC-JwnoLRD4gRJAl9yJetSO0,pita o' grille,41.983545872692474,-87.65818693624334,1103 w bryn mawr ave ,60660
ChIJJfgmIucxDogR-pTWopUlk2Q,el conde s.a.,41.799597459689494,-87.7035849555802,5141 s kedzie ave ,60632
ChIJH0OIs5csDogRyT915E-bUfc,pat's pizza,41.87396103697072,-87.63080445228692,628 s clark st ,60605
ChIJXVEBudAxDogRYDr085GZFi4,la baguette bakery,41.78639755002676,-87.70320568633966,5857 s kedzie ave ,60629
ChIJmX3iRrUsDogRjMUU6zqjDoU,the green door,41.894637024510644,-87.6372686344033,676-678 n orleans st ,60654
ChIJYw45cXLSD4gReHHpSyqEIDg,tiny,41.96112142040857,-87.68396862492989,4352 n leavitt st ,60618
ChIJKQD13sUsDogR7-XywAQdDIc,blackbird,41.884320409140116,-87.64360139964731,619 w randolph st ,60661
ChIJczeWliHOD4gRjRBiEzlm-2M,croatian cultural center of chicago,41.997419715008114,-87.70142268157917,2845 w devon ave ,60659
ChIJ61L0rQ7TD4gRUmeTXoflywk,snow dragon,41.930082886392576,-87.64368253576015,2618 n clark st ,60614
ChIJa6l3MhjTD4gR7_dFRCJ_Et4,oyster on halsted,41.91775186077485,-87.64863789225483,1962 n halsted st ,60614
ChIJcRkBDRwvDogRt1j-udmDSQQ,taylormade que,41.771932734101135,-87.64443484974524,6717 s halsted st ,60621
ChIJ1zC0SZjSD4gRUfac8z5zJ7k,crafty cafe,41.88670922202607,-87.63471089945948,225 w wacker dr ,60606
ChIJP55duFbSD4gRhp6DMMAWloM,shawarma stop,41.9361719122101,-87.65340849377955,947 w wellington ave ,60657
ChIJ8xJp-HYyDogRaZ7jj2qszdI,"aramark services, inc",41.87225870806733,-87.6260946097438,754 s wabash ave ,60605
ChIJpVT4j07SD4gRzYLvwHOLWyQ,bulerias inc.,41.948664225929576,-87.66905078783823,3656 n ashland ave ,60613
ChIJq7u58SPTD4gRqV7j2UThRLM,coffee lab & roasters,41.93317720763094,-87.65936357447279,2823 n lincoln ave ,60657
ChIJaUO6k5gsDogRw73wkldmlcw,"la salle cafe luna, inc.",41.874311649991895,-87.62540326752529,63 e harrison st ,60605
ChIJM0cZsuLND4gRhbwKMtFveGM,charcoal delight inc,41.97564376186505,-87.70783409240099,3139 w foster ave ,60625
ChIJazkN6azOD4gR-kJHPSQcf7U,gala banquets,41.98401086554883,-87.77517246896801,5639 n milwaukee ave ,60646
ChIJbb0XkYDND4gRELc58bIr-Ug,food first chicago,41.99038358477244,-87.6903184871278,2415 w peterson ave ,60659
ChIJK3tSmh3TD4gRLjutlegcLsY,pancake cafe,41.95127391161999,-87.64947156399771,3801-3805 n broadway ,60613
ChIJ21QlcMYsDogRM_HmOgyBA34,hampton inn chicago-downtown/west loop,41.88373719653956,-87.64286160763208,116 n jefferson st ,60661
ChIJq7u58SPTD4gRqV7j2UThRLM,coffee lab,41.93317720763094,-87.65936357447279,2823 n lincoln ave ,60657
ChIJ-yDclxstDogRwpAzpJYGOJw,rosebud cafe,41.86940905403705,-87.66419709016535,1500 w taylor st ,60607
ChIJf2yxCIjMD4gRzLxNEcUYK5o,ice cream las fuentes,41.93701599774786,-87.76629652776613,3107 n central ave ,60634
ChIJQYIycMYsDogRGXREWIQWv2U,homewood suites-chicago-downtown/west loop,41.88380025201622,-87.64286348545521,118 n jefferson st ,60661
ChIJiZvUncIJXUARmHIbFK3JsR0,black sheep,41.9903656885798,-87.69353289993734,2535-2537 w peterson ave ,60659
ChIJlcZ2Q28vDogRThtrr9i2MIw,"italian fiesta pizzeria, inc",41.747086098940834,-87.6440843829303,8058 s halsted st ,60620
ChIJ2wjRc0ooRI4R3BRAHlIWqzw,salero,41.88432009326193,-87.64368972279749,621-623 w randolph st ,60661
ChIJ_83WiZksDogR3YGEltfapCk,bull dog ale house,41.870502077951755,-87.62734617773438,901 s state st ,60605
ChIJA2OQfX_SD4gRymzJS3xp4rY,pisolino,41.93928538446442,-87.6973359514559,2755 w belmont ave ,60618
ChIJ7wTBn6bTD4gRLmcAOt_u8f4,chicken hut,41.94009690438851,-87.64454836666702,3200 n broadway ,60657
ChIJw9rj_xLND4gRTsMqBVc7zqo,little pickle,41.92446191188847,-87.71957547584789,3703 w fullerton ave ,60647
ChIJXSJYMe3OD4gRznZWUdFpiEg,east of edens,41.9971470073763,-87.7484909596666,6350 n cicero ave ,60646
ChIJ_6PjZEAzDogRYCaeT-O11LY,red snapper fish chicken & pizza,41.88023654386584,-87.7572203921175,5255 w madison st ,60644
ChIJ2R3AoP_RD4gRETrRzgXjTIs,tostini,42.007932100342174,-87.67100362889559,1622 w morse ave ,60626
ChIJbXRXKMEsDogRxzQ5ZF0EQuc,naansense clinton llc,41.88014435602688,-87.64099297246834,113 s clinton st ,60661
ChIJfwWR-iO0D4gRB8ORfAaJy_Q,summer house (t2 main),42.008536400868735,-87.91442843927048,11601 w touhy ave ,60666
ChIJPTDeeijSD4gRAtxl8Is3dzU,hutch american kitchen and bar,41.973261367299926,-87.66762285692627,1477 w winnemac ave ,60640
ChIJ_ZQTa9UxDogRcq4HrnY4jPQ,little dennis,41.77893000705904,-87.69859994691997,3007 w 63rd st ,60629
ChIJUyveJXrYEYgRzXVzZz8P-94,taqueria el charo de san francisco,41.702619232856534,-87.53430877312702,3655 e 106th st ,60617
ChIJc5RFgaDTD4gRXhtybLECM0U,doppio coffee house,41.937724818923385,-87.66631958490133,3054 n greenview ave ,60657
ChIJrb_wVb7ND4gRT_49nKdh9ww,chicken works and salad co.,41.95385813673397,-87.71999798686191,3658 w irving park rd ,60618
ChIJ8c2DiaQsDogRPnIg1eFnKl0,flat top grill,41.881334805946864,-87.62633546646605,30 s wabash ave ,60603
ChIJLzvZPEXND4gRjK0eCWHN9zE,o-manny  mexican restaurant,41.953627922832354,-87.71947320701166,3641 w irving park rd ,60618
ChIJJa9lgCjSD4gR_yPq_Dh4Un4,hot 'g' dog,41.97284251510629,-87.66782239421524,5009 n clark st ,60640
ChIJE4qyXxItDogRjRlHQ_O-bMQ,hakka bakka,41.88569111784153,-87.6522896923192,1002 w lake st ,60607
ChIJu-eVtX0rDogRnAL4r-ucyaM,aramark-soldier field,41.862628294037634,-87.61503109411329,1410 s museum campus dr ,60605
ChIJM9Ou0cbSD4gRez_o4_WwPvQ,lillie's q,41.88418750712781,-87.64111966683218,131 n clinton st ,60661
ChIJTa5exeXSD4gR3E0CMxIOz2U,webster's,41.92884909944806,-87.70681721349659,2601-2603 n milwaukee ave ,60647
ChIJqTKQaNjND4gRNtreNJKPdzc,gorilla sushi,41.96828872955171,-87.71367720190815,3407 w lawrence ave ,60625
ChIJffn6_qDRD4gRWc309C8EGfs,63 bar & grill,41.997594186195435,-87.66034486500234,6341-6343 n broadway ,60660
ChIJtf6OVP_RD4gRNCUGnMBELfE,chop suey huang,41.97597608993619,-87.6924942225335,5202 n lincoln ave ,60625
ChIJhamgUKAtDogRYA-x3NDr7oc,chepe's tacos,41.85469470170735,-87.67576513516752,2007-2009 s damen ave ,60608
ChIJgWWAUCa0D4gRaYOwZv-QoFU,wicker park seafood and sushi bar,42.008536400868735,-87.91442843927048,11601 w touhy ave ,60666
ChIJqepMS8YsDogRH1LdCKJJ7Mg,little greek corner inc.,41.88418750712781,-87.64111966683218,131 n clinton st ,60661
ChIJW_ZhkCouDogROmPka-3QMvw,golden fish & chicken,41.779173106768134,-87.69698885824074,2926 w 63rd st ,60629
ChIJ713pAJ3RD4gR07nX40bnTWI,loving hut,41.9874648066949,-87.6603343733537,5812 n broadway ,60660
ChIJc4m36rAsDogRlT1yxwUUp9o,goddess and the baker,41.88670659265085,-87.63162996998051,121 w wacker dr ,60601
ChIJR-Ub8K_ND4gRR9otHyzJfeU,brasa roja restaurant,41.946270550939566,-87.72754493145142,3556 n pulaski rd ,60641
ChIJJSwBwAfLD4gRIrc9pxATXRU,luke's beef & pizza,41.937289633353735,-87.80687098480557,3130 n harlem ave ,60634
ChIJsxosZWLND4gRH7vbeVKbuLg,revolution steak house,41.9445055612149,-87.64537149797674,3443-3455 n broadway ,60657
ChIJjWM-ScYsDogRPIe-X67fxw4,pastoral,41.88418750712781,-87.64111966683218,131 n clinton st ,60661
ChIJCwsPS8YsDogRY8la83_rqEc,jian,41.88418750712781,-87.64111966683218,131 n clinton st ,60661
ChIJ71B-5ybTD4gRH_Sm6_UBPac,hero coffee bar,41.88177941104997,-87.6543802690087,1100 w madison st ,60607
ChIJ-TzqtrQsDogRSnXY2PQOcnU,brickhouse tavern,41.94842204024845,-87.65732463824295,3647 n clark st ,60613
ChIJvTbDep7RD4gRw5HUfY39aG4,income tax,41.99069647164377,-87.66014073065755,5957-5959 n broadway ,60660
ChIJHSw-sVvSD4gR9mdt_5O1Rog,pho's thai cuisine,41.94250592179978,-87.67079776903307,3332 n lincoln ave ,60657
ChIJUe4qQyUxDogRiyDu11NWdlo,el churrito3,41.74973848111044,-87.71810075889891,3796 w 79th st ,60652
ChIJW6v8P_zRD4gR-o1P51opVzg,hub's gyros ii inc,41.98222979264743,-87.69383949704255,5540 n lincoln ave ,60625
ChIJV6Zkwq3MD4gRhWdA4RR5puA,whale fish & chicken,41.902222995753284,-87.76768777794882,5650 w division ave ,60651
ChIJ6WN3LkvTD4gRTXjLu5f5udU,tzuco / tales / panango,41.895564027265614,-87.62831821079556,718-720 n state st ,60654
ChIJX8LyFj4tDogR0r6YytElO2M,convene at 311 west monroe,41.88052759161976,-87.63562385358797,311 w monroe st ,60606
ChIJT0ijtcnSD4gRzBZskJHHeC8,fifolet cajun,41.903311984082535,-87.67657337106594,1942 w division st ,60622
ChIJpSdwFDzSD4gRTHCSjYkGRyQ,"first slice, llc",41.961619344855826,-87.67383267401581,4401 n ravenswood ave ,60640
ChIJ2wC8lNjTD4gRSnVgOLr552c,cracked on milwaukee,41.906629896738416,-87.67137623922982,1359 n milwaukee ave ,60622
ChIJZ83fkuLLD4gRf6m9rUbJHgw,the original nicks gyros,41.97671902984532,-87.7880013134877,5238 n nagle ave ,60630
ChIJU_569GIlDogRg2F8qEA7-i0,jj fish,41.735585506398934,-87.67022566460537,1861 w 87th st ,60620
ChIJBz-ZAXjLD4gR5o8BM_qi-gI,meson del taco inc,41.93786030231027,-87.78606939815405,3144 n narragansett ave ,60634
ChIJkzR9sqMsDogRJQ2rN0wekq8,roosevelt university coffee shop,41.876248128035826,-87.62441918459099,430 s michigan ave ,60605
ChIJmZWQ4rPLD4gR8WLfyBJLzjA,jimmy johns 561,41.95256564111005,-87.81127429615809,7329 w irving park rd ,60634
ChIJE35xBWjND4gRh6QNG_flwe8,la bomba restaurant,41.91728108852338,-87.70785660455108,3221 w armitage ave ,60647
ChIJ0bovdggtDogRyJgynewxdN4,the jibarito stop,41.857873459406534,-87.66812208797606,1646 w 18th st ,60608
ChIJA5_SrZwxDogREWoqa1GtrtI,la cebollita restaurant,41.80764585138776,-87.73272527973799,4343 w 47th st ,60632
ChIJAfgxDgDTD4gRR3bm8uGMvZU,philz coffee,41.924250410054995,-87.64687752309652,2323 n lincoln ave ,60614
ChIJZWcU5wTTD4gRMyyweeXwegA,de quay,41.92687231925592,-87.650968355266,2470 n lincoln ave ,60614
ChIJ07gp8LHND4gR-qZ4xyINf6s,bokeh,41.96716992383398,-87.7085787033688,4716 n kedzie ave ,60625
ChIJ0WS0fpTND4gRs_jUQn3bqJw,subway ,41.95354369025621,-87.71274346541044,3951 n kimball ave ,60618
ChIJ-UNpSbIMD4gRD3-CxukvuJU,jimmy johns 3106,41.87252753139634,-87.67744169620713,721 s seeley ave ,60612
ChIJvTCU7tosDogROnktq8B92bE,j.p. graziano grocery co inc.,41.88425670381661,-87.64982670264364,901 w randolph st ,60607
ChIJuXoaRpssDogRWp0NjV3EZv4,jimmy john's,41.86607358683167,-87.62426767322485,1250 s michigan ave ,60605
ChIJS-H_g8gsDogREqE0ZhW6Z50,new line,41.885752607166296,-87.64116457925337,201 n clinton st ,60661
ChIJTW6i3abTD4gRGZDHBcu78d8,maison marcel,41.93811706325153,-87.64448281820779,3114 n broadway ,60657
ChIJ88RqlmwvDogRWhZr8tR7ONA,sunny's bar b que,41.75526282553509,-87.64430781136896,7626 s halsted st ,60620
ChIJp_A2KC3SD4gRjdGBo0oWUlY,lawn magic lounge,41.76977201470989,-87.72267947406459,6752 s pulaski rd ,60629
ChIJmYibGeXND4gR7VFs8DnaBE8,taqueria el dorado ,41.92602224894322,-87.649782209964,2428 n lincoln ave ,60614
ChIJ_2NJoa0sDogR4g520LwywQ4,pizzeria uno chicago bar & grill,41.892383416638715,-87.6268047865619,29 e ohio st ,60611
ChIJ1z0Co9YvDogRUnkLWaWF6XI,new super sub and gyros,41.771927701832006,-87.69369337936176,2810 w marquette rd ,60629
ChIJ9eemRwgtDogR_EsmnDF1M4E,carnitas uruapan,41.85763234806772,-87.6697745345797,1725 w 18th st ,60608
ChIJmZWQ4rPLD4gR8WLfyBJLzjA,jimmy john of chicago,41.95256564111005,-87.81127429615809,7329 w irving park rd ,60634
ChIJJ0LawKv3DogRVj19pm6QWKk,taste of china,41.92757677830966,-87.65152817242594,2511 n lincoln ave ,60614
ChIJKaQApdYvDogRl6FsJIl9q1o,red snapper,41.77193063059243,-87.69343854613754,2804 w marquette rd ,60629
ChIJC9Vc1ufTD4gRTyx5nEjl6VI,the dock at montrose beach,41.96390893734172,-87.63863624840039,4400 n simonds dr ,60640
ChIJnz9GihDND4gRpl02z2_65UA,best taco & burrito joint corp,41.92438086726451,-87.72620077208454,3947 w fullerton ave ,60647
ChIJJdTWmOfND4gRsXyzF_MbijI,el campeon taco bar express,41.98768869025668,-87.7030773448876,5848 n lincoln ave ,60659
ChIJyVCMGLDTD4gRhNmsytBKr5U,taco & burritos palace,41.94569849942014,-87.64929159731302,3507 n halsted st ,60657
ChIJU8ePqkdhDogRp3sstY1Ev_Y,"menard 6300 donuts, inc.",41.77784507899415,-87.76638143708637,5755 w 63rd st ,60638
ChIJY9ytZ-veEYgRi59xduqV1Ps,la delicia michocana,41.74524711378981,-87.72162642011324,8119 s pulaski rd ,60629
ChIJNZmaVwjTD4gRWcQqopLyHCk,nando's peri-peri,41.932883864695405,-87.64627175168745,670 w diversey pkwy ,60614
ChIJwW47GBjSD4gRun349NzMdC8,siam country,41.96623164391728,-87.67896608867449,4637 n damen ave ,60625
ChIJiQRer-QtDogRIJbfvRasl3M,xochimilco mexican restaurant,41.96155024733558,-87.68027082609893,2030-2032 w montrose ave ,60618
ChIJMUhGGqwsDogRzmCX4jRx34o,forbidden root,41.896114154047105,-87.67144254922484,1744-1746 w chicago ave ,60622
ChIJM4kNchPOD4gR2BnhNviAMRQ,"martino's italian cuisine & pizzeria, inc.",41.990198520314,-87.71526237304487,3431 w peterson ave ,60659
ChIJA-raYGEwDogRDm7ZqcvcqPw,o's donuts & cafe inc,41.75466012439375,-87.7413847586052,7601 s cicero ave ,60652
ChIJX6y8DdosDogRkk09xSPIUe4,do-rite donuts,41.88542085068144,-87.6519886720252,181 n morgan st ,60607
ChIJSZVhROEuDogRE9i3JxUdeOk,long tung chinese kitchen,41.8781,nan,6237 s halsted pkwy ,60621
ChIJF2DcZgPTD4gRKm-aJ9pu4BM,bayan ko,41.961619281289565,-87.67502882185283,1810 w montrose ave ,60613
ChIJ-5DoqQAtDogR37OhGQp2b9w,la esperanza restaurant,41.85630665110072,-87.66265894498156,1864 s blue island ave ,60608
ChIJJ4enA2AwDogRA4BmTP_854A,new cajun grill,41.75466012439375,-87.7413847586052,7601 s cicero ave ,60652
ChIJk_Gw1wHTD4gRofyj_UUZA7w,los tres panchos corporation,41.93245780886835,-87.65805862829535,1155 w diversey pkwy ,60614
ChIJswuDdWLTD4gR6rcxoEKSo6Q,real good stuff co,41.924934718635406,-87.6478328749538,2355 n lincoln ave ,60614
ChIJWzcCi_fSD4gRlz7gyvWAfZ0,tutto fresco,41.93427577401413,-87.66831645215952,2901 n ashland ave ,60657
ChIJQa31rb4oDogRhOtBfrOS0C0,west indies international,41.75119526145043,-87.60365276290436,839-841 e 79th st ,60619
ChIJHTOVJVEtDogRb6UPD710kQU,la mom kitchen,41.834369784775426,-87.64634011031984,3312 s halsted st ,60608
ChIJ1VlyP6bND4gR8K1rXfdT1fA,great dragon 78,41.940493637306474,-87.72591131934738,3269 n milwaukee ave ,60618
ChIJNXIqxbksDogRpdDgCxaqLwg,left coast food + juice,41.8844994926551,-87.63523357601808,151 n franklin st ,60606
ChIJh_2702spDogR41jhyNK4rfs,harold's chicken shack ,41.79957000569888,-87.59623910783128,1208 e 53rd st ,60615
ChIJ1cNvd5EsDogRbo_J4O-NxF4,"kerasotes showplace theaters, llc",41.86967388968045,-87.63236767073617,1011 s delano east ct ,60661
ChIJ8bLW37EsDogRcTtDZ9w13U8,stk chicago,41.889137270565854,-87.62843005984259,9 w kinzie st ,60654
ChIJ4X6PqBrLD4gR2yzTCfq0Spc,cafe ,41.92792701869176,-87.80624603489264,2625 n harlem ave ,60707
ChIJowIOkYMoDogR9_PR043n-qg,"taurus flavors, inc.",41.73953307422685,-87.58585188835282,8534 s stony island ave ,60617
ChIJqepMS8YsDogRJ-X3_SHAmjU,polpetti espresso bar,41.88418750712781,-87.64111966683218,131 n clinton st ,60661
ChIJ-ekIpYQsDogR58LgaNALse0,kurah,41.864248796634286,-87.62393362748476,1355 s michigan ave ,60605
ChIJuyFmYb0nDogRHttuw-bz7c0,hienie's,41.70648742697794,-87.55949850858343,10359 s torrence ave ,60617
ChIJW5z6LdHTD4gRrQ_4NiElAnc,no bones beach club,41.91038685926323,-87.67683123852463,1943-1945 w north ave ,60622
ChIJa7XyMPAsDogR_3Ma_IVijN0,kohan japanese restaurant,41.86490157227489,-87.64629229053516,730-732 w maxwell st ,60607
ChIJHUmiYQ7PD4gRw04nHdeCazU,miss saigon express,41.98768869025668,-87.7030773448876,5848 n lincoln ave ,60659
ChIJHb_LF9XTD4gRKTLvEa3c5u0,new orleans seafood inc,41.97339650923979,-87.65679874855938,1046-1/2 w argyle st ,60640
ChIJD6F7s1as2YgRCL7WYUZc9tc,tania's catering inc.,41.84832465538536,-87.67343415669363,2404 s wolcott ave ,60608
ChIJY1ug7MnSFogRaTNjls0DUng,janitzio burritos y tagueria,41.93591407253064,-87.64411268411703,2933 n broadway ,60657
ChIJSbfKRsUsDogRgHJ5GfV2ZZ0,la josie,41.88451685704581,-87.6473906819507,740 w randolph st ,60661
ChIJjbPuijzND4gRhDYZXZHujUQ,oazas,41.96836672599028,-87.70589093652269,3057 w lawrence ave ,60625
ChIJJa0x-60sDogRiWh42eGLnE8,subway sanwich shop,41.92404417418351,-87.76894097882658,5710 w fullerton ave ,60639
ChIJgaP0e4kxDogRu_TOhx5n3r8,all style buffet,41.814993602943076,-87.72370769529371,4305 s pulaski rd ,60632
ChIJFcjn1ZoxDogR_B0jt7Yzics,mariscos luis-ito,41.80768469489128,-87.72964242714635,4225 w 47th st ,60632
ChIJN5ctYGbSD4gRjv4LebX_7L0,dos ricco's mexican fusion,41.955868080075895,-87.6801228669928,4064 n lincoln ave ,60618
ChIJSabtJwHTD4gRg-knzM5rSws,beezzee,41.932874632796434,-87.65372052069962,2807 n sheffield ave ,60657
ChIJ5wVlIgsvDogR0us6mo8kVl8,popeyes ,41.808780247267606,-87.65995685711123,1356 w 47th st ,60609
ChIJj5x_9ZktDogRQoOgKJq4B6g,ignotz restaurant,41.84775339576966,-87.68292779619232,2423 s oakley ,60608
ChIJVYx4T70sDogRZ8ke5jlrsD4,subway ,41.87679468592167,-87.62899906139143,35 w van buren st ,60605
ChIJ92MyUc7SD4gRFw3tfH1kt8w,starbuck's coffee ,41.90319559301502,-87.66996531168556,1701 w division st ,60622
ChIJFyjua7QlDogRA3CnJ4InLW8,taqueria don chilo,41.70018567996818,-87.64247740494352,10643 s halsted st ,60628
ChIJG4IdAdAsDogR1tSvuEq-QGU,momotaro,41.88575836898289,-87.64841058851927,820 w lake st ,60607
ChIJWU3z4THSD4gRyCmncbu3ajk,k i african restaurant,42.01258706150375,-87.67448205374414,7137 n clark st ,60626
ChIJTalX_WvND4gRs5NPMPBTA64,punta cana restaurant inc.,41.921045051664414,-87.71214152490884,2200 n kimball ave ,60647
ChIJqxmlO1XSD4gRNome3-iToO0,will's northwoods inn,41.93720667186293,-87.6590215526174,3032-3034 n racine ave ,60657
ChIJu2HTxG8mDogRQ5Yopgni61E,popeye's,41.70750956551268,-87.60818281887106,616 e 103rd st ,60628
ChIJNbKQElTTD4gRa6YVxe8YLkw,l'appetito imp italian fds inc,41.895004916666004,-87.6268768692968,30 e huron st ,60611
ChIJX1ZZrlzND4gRGcBulW-48Xs,gateway foundation-kedzie cent,41.91219344115504,-87.70695426070267,1706 n kedzie ave ,60647
ChIJ67Mg51LND4gRzWIDq2wJZMc,jr's red hots,41.91746648068976,-87.68681623688606,2345 w armitage ave ,60647
ChIJPYLrO30lDogR2-5oi5BsYpk,eat and run  nfp,41.73562916449937,-87.66684642780346,1733 w 87th st ,60620
ChIJYyYwwcMyDogR9i0KzV1oWYo,"white castle system, inc.",41.88064565374098,-87.72337093987873,3901 w madison st ,60624
ChIJv0YhqsM2DogR5yr-b7j303A,boby g,41.91892249549356,-87.76732160126718,5637-5639 w grand ave ,60639
ChIJU2WksjLMD4gRcXOxzXeXw_s,xsport fitness,41.96622739208643,-87.73718362211928,4677 n elston ave ,60630
ChIJD9kj3JgxDogRxpOWDx2LXYo,studio 31,41.80030387187545,-87.731742412929,5147 s archer ave ,60632
ChIJFe_FAUgtDogRNvsYZUbeFFk,metric coffee cafe,41.886649246847924,-87.67766942610926,2021 w fulton st ,60612
ChIJ7x3Elee3D4gRZsdODSgN_l8,jose m,41.95871461429297,-87.7080192869965,4239 n kedzie ave ,60618
ChIJM52nJwjTD4gRUKS6Xmqjzy4,the gundis kurdish kitchen,41.93513842731886,-87.6466083401796,2909-2911 n clark st ,60657
ChIJO7f22rnND4gRDJ8P7Q3bas0,"fittingly delicious, llc",41.95355180443531,-87.72667299244586,3939 w irving park rd ,60618
ChIJVYx4T70sDogRK1ISHi9DMlo,bonivino's inc,41.87677124480492,-87.63106138390339,109 - 111 w van buren st ,60605
ChIJAQDAbL8sDogRc116SWR6tYo,mojo 33 north lasalle llc,41.882797707049605,-87.63224208140494,33 n la salle st ,60602
ChIJ-y5x_Q7OD4gRLcGXNeBovog,kebab grill,41.955868080075895,-87.6801228669928,4064 n lincoln ave ,60618
ChIJdfNpBYXND4gRKukIKqAEa5s,beef chief,41.722232005297535,-87.62520901436761,9440 s lafayette ave ,60620
ChIJuyrgVQrTD4gRL1A3vwLSslg,chipmunks,41.93299009129136,-87.64086756860948,438 w diversey pkwy ,60614
ChIJLUxAaGwmDogR92PMFzhz-rE,damm donuts & sweets,41.885851558869476,-87.74553252617805,4800 w fulton st ,60644
ChIJ3b7xarPLD4gRih_XiyBg-oA,bije's,41.95248836107066,-87.81440271000294,7455 w irving park rd ,60634
ChIJMRjvDIjMD4gRxgMXjF5zz2Q,pita grill,41.936346391711716,-87.76627386081529,3051 n central ave ,60634
ChIJ534mAirRD4gRQ4e-zXUDxhs,zaiqa restaurant,41.997674470047706,-87.6867563084304,2245 w devon ave ,60659
ChIJO20UBlhYwokRLOgbAsnzHXE,"wendy's old fashioned hamburgers of new york, inc",41.7660903164277,-87.68313480240782,7013-23 s western ave ,60636
ChIJiVLhDCYtDogRzbEfRJIGD_g,buona,41.883252799966726,-87.64764601387161,804 w washington blvd ,60607
ChIJv2Nedg7SD4gRq25AFantVLY,taqueria 5 de mayo,41.96119792195588,-87.68929406845888,2415 w montrose ave ,60618
ChIJ6yXLOLExDogROz0sCEkExrQ,creameria la ordena ,41.784348531275114,-87.72306550106943,5952-5954 s pulaski rd ,60629
ChIJvRrUnb3RD4gR598Xg8MtYV8,laa-mushkila restaurant,41.99607255583781,-87.67035563206306,6258 n clark st ,60660
ChIJQ35qTZzRD4gRO5_ZqKVx6RQ,mango pickle,41.988272103883716,-87.66035869613218,5842 n broadway ,60660
ChIJC36BGm3SD4gRStSbhoeph14,chicago joe's,41.954163104720365,-87.68573203361376,2252-2256 w irving park rd ,60618
ChIJf57TdVnSD4gRi7jSsmpIMLw,pasta al gusto,41.94996659511004,-87.66395007499031,3737 n southport ,60613
ChIJBRuLGC_MD4gRfUVkzaQBIZk,mini palapita inc.,41.970833760208265,-87.74482421972742,4968 n elston ave ,60630
ChIJwROcHV3TD4gR7_x7PSf9pbM,la calavera,41.89623435694756,-87.66401078882515,1438 w chicago ave ,60642
ChIJDTcxXrssDogR_Z08-xZq004,potbelly sandwich works llc,41.88059895501336,-87.62990739051766,55 w monroe st ,60603
ChIJAQRhRa4tDogRECZytgkY3AE,hanabusa cafe,41.881965330252534,-87.62679322159418,29 e madison st ,60602
ChIJfS3OhjQxDogRjFT4hbTJeLw,wingstop ,41.794017543044355,-87.7741473714093,6190 s archer ave ,60638
ChIJQwv5skksDogR2Ix6vBgNPQs,bridgeport coffee house inc,41.83794296556336,-87.65099272245668,3101 s morgan st ,60608
ChIJQeoM5GktDogRped-VjPAkWE,new love teriyaki,41.822735079015686,-87.69448432322359,3901 s california ave ,60632
ChIJ855DdcHRD4gRo6iEljO2bUc,ghareeb nawaz restaurant,41.99798375025185,-87.68142044788961,2032-2036 w devon ave ,60659
ChIJP6pnyz3SD4gRtsERLIq63WE,glenn's diner,41.96161213476741,-87.67543734575274,1820-1822 w montrose ave ,60613
ChIJCW7NpqIsDogRMD4zkJADeko,panera bread,41.88216416733022,-87.62451427362218,2 n michigan ave ,60602
ChIJZ6ApXd7RD4gRODXtF-o5DkM,udupi palace restaurant,41.997550032960476,-87.69402394650278,2543 w devon ave ,60659
ChIJW0fpRvDRD4gR3tAJvzroogk,le piano,42.008813688990735,-87.66635391877985,6970-6972 n glenwood ave ,60626
ChIJB-n9Gn7MD4gRXrrOwQueukc,jesscafe,41.93839141038951,-87.77211894533082,5819 w belmont ave ,60634
ChIJHToSNsEsDogRvIzxhKg6mq4,halsted street deli & bagel,41.87939279810978,-87.64162617690116,550 w adams st ,60661
ChIJ_btIID8xDogRMNwjRPFCL4A,cafe rosa,41.79613354689054,-87.76038586211911,5842 s archer ave ,60638
ChIJHVlQvmLMD4gR-9yoQaolNOc,lutnia restaurant,41.938697817413846,-87.76541113658556,5532 w belmont ave ,60641
ChIJK5CkxUksDogRQISq_GnET98,lina's pizza inc,41.837035785715216,-87.65126549188066,3132 s morgan st ,60608
ChIJ6WQ6Br_FD4gRl7bbzXP2kwE,knife & tine,41.92509719836959,-87.66407755689009,1417 w fullerton ave ,60614
ChIJbcVbWAjTD4gR-iOb1LidUAk,half shell inc,41.93287908914709,-87.64650054859365,676 w diversey pkwy ,60614
ChIJdSXY4ifSD4gRnGA6qQdoHrE,jimmy johns sandwich shops,41.97467397723493,-87.66809696615381,5109 n clark st ,60640
ChIJ2ZcoswvTD4gR0ym8HCDY9Zw,yolk,41.932757422253204,-87.64148773327629,501 w diversey pkwy ,60614
ChIJYXdStj8xDogR73-TsDLSrxU,villa rosa pizza,41.796517946551106,-87.75791779651013,5786 s archer ave ,60638
ChIJuyrgVQrTD4gRL1A3vwLSslg,chipmunks restaurant,41.93299009129136,-87.64086756860948,438 w diversey pkwy ,60614
ChIJE7Jix0bMD4gRi7p4v0gjRUo,las tablas,41.95348584271347,-87.75073172757178,4920 w irving park rd ,60641
ChIJUayxwkUwDogRwd0BI_Z_MCI,burger king ,41.766201554459,-87.72259365751499,6950 s pulaski rd ,60629
ChIJldz0OPjLD4gR5vuX4omTqb0,earl's bbq,41.968688643613866,-87.77811463012365,4835 n austin ave ,60630
ChIJj4e1D0bMD4gR8235xTCIL6I,shilas restaurant,41.952761479601065,-87.74744674545474,3938 n cicero ave ,60641
ChIJYbTnXjMxDogR5fcNTEFwNQI,home run inn,41.78932932326538,-87.74164564419638,5700 s cicero ave ,60638
ChIJVVUZukbMD4gRkUrUXq-u4qk,tatas tacos,41.953263831201625,-87.75109199615231,4929 w irving park rd ,60641
ChIJobdRqDzTD4gRXkHzsTIHZ04,disco taco,41.96147827109243,-87.66949202485075,1605 w montrose ave ,60613
ChIJFc9PntIxDogR1_3cZ-4IFnQ,celis nutricion,41.77901426474392,-87.70734216168728,3344 w 63rd st ,60629
ChIJB-4yO7wxDogRpxFzmrsmM7Q,jackys hot dogs,41.79456096593258,-87.72305196106626,5415 s pulaski rd ,60632
ChIJ89k3p7DTD4gRN715mVxTBFA,finley mahony's,41.94924954780584,-87.64825980109579,3701 n broadway ,60613
ChIJQTImQFstDogRnos_ciToRBo,hexe coffee,41.932769047801315,-87.67901049486147,2832 n clybourn ave ,60618
ChIJz2gufcfolTkR3obM0LyaojQ,nepalese & indian cuisine,41.927066643768505,-87.69732984409596,2515 n california ave ,60647
ChIJtWiHda_TD4gRsiIf9jqlMDs,wood,41.94281989836237,-87.64921416892889,3335-3337 n halsted st ,60657
ChIJeyk5hcAsDogRN9qXl2k1qcw,peet's coffee & tea,41.864750024522216,-87.64699276962497,1328 s halsted st ,60607
ChIJn_piOW8vDogROETsSPNY6no,prime fish,41.74810405559482,-87.64411513161957,8022 s halsted st ,60620
ChIJ5_FPg4_RD4gRYqCP-6QJtMQ,tanoshii sushi mike's,41.884522851878884,-87.6465205843805,720 w randolph st ,60661
ChIJv7y6tMIsDogRmhQV_O_-3jM,primo's chicago pizza,41.876769809861614,-87.6479631493289,816 w van buren st ,60607
ChIJ-1uKpoLSD4gR9knxvVes2Ug,gosu,41.927066643768505,-87.69732984409596,2515 n california ave ,60647
ChIJ40AMdScyDogRS9sk1ryylDc,burger king ,41.8188405804105,-87.72411292982041,4060 s pulaski rd ,60632
ChIJ1VStIgbTD4gRt1Rj342S-vs,sapori,41.93157849671675,-87.64882493936558,2701 n halsted st ,60614
ChIJiV0IaiHTD4gRrlqepLgH2B8,mod pizza,41.91094876256121,-87.65315955127153,1000 w north ave ,60642
ChIJRwcF968sDogRQqumQflFR0U,"chick-fil-a,inc.",41.88527795660976,-87.62778287517118,177 n state st ,60601
ChIJPWhRT3MtDogRHf91Vx4Xiag,rpm on the water/ rpm events,41.88796933530696,-87.63088633782915,317 n clark st ,60654
ChIJv-W2bRbSD4gR4Nvsw1cDzEA,giordano's of lincoln square,41.96156203346385,-87.67945219695042,2010 w montrose ave ,60618
ChIJgaP0e4kxDogRu_TOhx5n3r8,4301 allstyle buffet,41.814993602943076,-87.72370769529371,4305 s pulaski rd ,60632
ChIJ0XOi9WPND4gRMPJVgNkLhAY,tropi cuba,41.922492669945136,-87.70235877406887,3000 w lyndale st ,60647
ChIJpdmrabMxDogRTe9qVB99_Cc,la michoacana favorita llc,41.779376798722666,-87.72292751334194,6236 s pulaski rd ,60629
ChIJJe-O-t_RD4gRNLnlHsRN7UI,karachi chat house,41.997661582786776,-87.68750364336269,2301 w devon ave ,60659
ChIJG2ajZyAtDogRLUTT1U74ovk,ella's corner,41.87786130020028,-87.65933207232132,1258 w jackson blvd ,60607
ChIJTVDiBbksDogR8twg49DuejM,hyatt place chicago downtown the loop,41.88264999321744,-87.63547347015259,28 n franklin ,60606
ChIJl671kVXTD4gRgkcdFiC7Tpc,le duck,41.906629896738416,-87.67137623922982,1359 n milwaukee ave ,60622
ChIJB20BV-wpDogRWSfAoXw7Y_Q,reggies on the beach,41.78080389939415,-87.5746155834058,6245 s lake shore dr ,60637
ChIJNxrK5KbRD4gR9EPPzed28d0,idof fresh mediterranian,42.00179879088649,-87.66090125470284,6558 n sheridan rd ,60626
ChIJlfzvLd3RD4gR-b0cL6G6U5o,serena  restaurant,41.99765535340108,-87.68784050345002,2309-2311 w devon ave ,60659
ChIJ7RRTZxXOD4gRGtsnHNfBrH0,burger king ,41.99570960302507,-87.71579472135497,6261-6265 n lincoln ave ,60659
ChIJM7K_gLYsDogRkmdAgJsxL54,coco pazzo,41.890072617091896,-87.63559785580715,300 w hubbard st ,60610
ChIJ9aWY_qItDogRLqjZrUg1-kc,raymond's hamburgers & tacos,41.84878118113963,-87.67542917644128,2404 s blue island ave ,60608
ChIJEw1E_7EsDogRp58b2KTYt8U,henry's swing club,41.89016640039207,-87.62854579369517,14-18 w hubbard st ,60654
ChIJNxrK5KbRD4gR9EPPzed28d0,idof fresh mediterranean,42.00179879088649,-87.66090125470284,6558 n sheridan rd ,60626
ChIJv5o2zv_ND4gRyD_TrQlFgOM,au bon pain,41.97634621482352,-87.69879442304911,5215 n california ave ,60625
ChIJ0zDNVL7ND4gRpBVFakX6zAA,el llano restaurant,41.954034680482884,-87.71942863439298,4011 n elston ave ,60618
ChIJdV8KxojRD4gRfxAbU8fSwnk,pie cafe,41.97971709673953,-87.66956491822631,5357 n ashland ave ,60640
ChIJJyYuVY_RD4gRBrYhEQEBqys,jerry's,41.98035903557327,-87.66817124313768,5419 n clark st ,60640
ChIJ0_BibnvSD4gRu5sbeMMS-KU,chipotle,41.94169392990675,-87.6883793275093,3312 n western ave ,60618
ChIJsxosZWLND4gRH7vbeVKbuLg,revolution brewing,41.92353245816767,-87.69813956418871,2323 n milwaukee ave ,60647
ChIJScbIo7XTD4gRFSMOxnNt7EA,emerald city coffee,41.953896414812974,-87.6546757421038,3938 n sheridan rd ,60613
ChIJKyqieAfSD4gRsCgnNtYLl5g,han bat restaurant,41.96843448613853,-87.6971682172991,2723 w lawrence ave ,60625
ChIJrwsYhIjRD4gRdfEjJ5LIBSI,potbelly sandwich works,41.97820526310159,-87.66849069015261,5304 n clark st ,60640
ChIJR-Ub8K_ND4gRR9otHyzJfeU,brasa roja express,41.954034680482884,-87.71942863439298,4011 n elston ave ,60618
ChIJ_QijSLbSD4gR8_o2ZnmPcoI,silli kori,41.90304273718245,-87.67934668623802,2053 w division st ,60622
ChIJa8CXFJgsDogRc2PZMtC-foc,"wings over harrison, llc/wingstop restaurants, inc",41.874489056706274,-87.6273652953713,12 e harrison st ,60605
